stop_id,stop_lat,stop_lon,stop_name
3,12.96004656,77.64719738,Kodihalli
5,12.97500273,77.54211521,MC Layout
6,12.97582743,77.60564176,MG Road Metro Station
7,12.91704891,77.62171975,Central Silk Board (Towards Madivala)
8,12.91672959,77.57366674,Banashankari Bus Station (Towards Konanakunte Cross)
9,12.91753106,77.57296011,Banashankari TTMC
10,12.91703282,77.57840196,Sangam Circle
12,12.91730831,77.58357173,5th Block Jayanagara (Towards Jayanagara)
17,12.91693403,77.5932443,Ragigudda Temple
18,12.91684059,77.59719395,East End Jayanagara (Towards BTM Layout)
20,12.91659989,77.60312779,MICO Layout
21,12.91669366,77.60684366,BTM Layout Water Tank
22,12.91649963,77.60642451,BTM Layout Water Tank
23,12.91717183,77.61007499,Udupi Garden Petrol Bunk
25,12.91652707,77.60880393,16th Main BTM Layout 
27,12.9162174,77.61591656,BTM Layout Kuvempu Nagara
28,12.91635662,77.61591532,BTM Layout Kuvempu Nagara 
29,12.91630999,77.62354268,Central Silk Board UFLY
30,12.97183024,77.53791923,Vijayanagara
31,12.96217397,77.56000394,Sirsi Circle
32,12.96366889,77.57736881,KR Market
35,12.90677751,77.62842911,Bommanahalli (Towards Beguru)
36,12.90536003,77.63013142,Bommanahalli (Towards Electronic City)
37,12.89618963,77.63544064,Garvebhavipalya
38,12.88965654,77.63948598,Kudlu Gate
39,12.88985737,77.63965926,Kudlu Gate
40,12.87874432,77.64647488,Singasandra
41,12.87059695,77.65295173,Hosa Road (Towards Electronic City)
42,12.84816925,77.6707112,Electronic City (Towards Attibele)
43,12.85485537,77.66515418,Konappana Agarhara
44,12.85873107,77.66232768,PESIT College Electronic City
45,12.87738903,77.64705927,Singasandra
46,12.89629994,77.63568778,Garvebhavipalya
47,12.90483622,77.63007965,Bommanahalli (Towards St Johns)
48,12.91168823,77.62586568,Rupena Agrahara
49,12.91611715,77.62309375,Central Silk Board (Towards Kuvempunagara)
50,12.92008333,77.62066167,Madivala
51,12.92472759,77.61791906,Ayyappaswamy Temple Madivala
52,12.93201852,77.61325248,Jn of Hosur Road
53,12.93636174,77.60660537,Muneshwara Devasthana
54,12.93868165,77.59831884,Nimhans Hospital
55,12.94382951,77.59709837,Lakkasandra
56,12.9467426,77.59607302,12th Cross Wilson Garden 
57,12.94989829,77.59597146,Wilson Garden Police Station
58,12.95497093,77.591889,Shanthinagara Bus Stop KH Road 
61,12.97472667,77.58691,KR Circle
62,12.96724194,77.58828195,Corporation (Towards KR Market)
63,12.94709538,77.59451345,7th Cross Wilson Garden 
64,12.95459258,77.5925092,Shanthinagara TTMC
65,12.95140577,77.59521987,Wilson Garden Police Station
66,12.94715044,77.59805714,10th Cross Wilson Garden 
67,12.94308106,77.59743743,Lakkasandra
68,12.93643438,77.60661905,Muneshwara Devasthana
69,12.9321567,77.61327778,Jn of Hosur Road
70,12.929492,77.61592831,St Johns Hospital
71,12.92736827,77.62164689,Water Tank Koramangala
72,12.92561867,77.62579801,Kudure Mukha Colony
73,12.9239713,77.62856574,Krupanidhi College
74,12.92160726,77.6214077,Madivala
75,12.91186255,77.62604769,Roopena Agrahara
76,12.93563843,77.60147069,Bengaluru Dairy Circle (Towards Bannerughatta)
77,12.92725733,77.6006887,Ananda Ashrama
78,12.92522667,77.60055896,Coles Road
80,12.91394928,77.60005281,MICO Layout Checkpost Gopalan mall 
81,12.9081699,77.60041709,JP Nagara 3rd Phase
83,12.90077134,77.60110669,Bilekahalli
84,12.8960723,77.59976967,IIM Apollo 
85,12.89226171,77.59883917,HSBC (Towards Arakere Gate)
86,12.89059818,77.59822328,Arakere Gate (Towards BPL)
87,12.88738986,77.59702001,BPL (Towards Hulimavu)
88,12.88075471,77.59590891,Hulimavu Gate (Towards Meenakshi Temple)
89,12.87470152,77.59482719,Meenakshi Temple
90,12.87099571,77.5935365,Loyola School
91,12.86613423,77.59190793,Kalena Agrahara
92,12.86238129,77.59061983,Himagiri
93,12.85668319,77.58893224,Gottigere (Towards Basavanapura Gate)
94,12.85101984,77.58837133,T John College
95,12.84623151,77.58826256,Basavanapura Gate
96,12.83550026,77.59008647,Jn of Malenallasandra 
97,12.83243745,77.58896162,Kalkere
98,12.81925921,77.5847055,Ryan International School
99,12.8135379,77.58109141,Bannerughatta Circle (Towards Kalkere)
100,12.81937256,77.58467229,Ryan International School
101,12.82948817,77.58772479,AMC College
102,12.83227727,77.58878031,Kalkere
103,12.83555793,77.58998635,Jn of Malenallasandra
104,12.84100722,77.58856176,Koli Farm Gate
105,12.84620008,77.58817751,Basavanapura Gate
106,12.84959604,77.58821708,T John College
107,12.85620471,77.58875119,Gottigere (Towards Kalena Agrahara)
108,12.86248422,77.59055583,Himagiri
109,12.87085012,77.59337516,Loyola School
110,12.87470064,77.59466015,Meenakshi Temple
111,12.88135098,77.59588443,Hulimavu Gate (Towards Jayadeva Hospital)
112,12.88726392,77.59686118,BPL (Towards Arakere)
113,12.89062758,77.59802821,Arakere Gate (Towards IIBM)
114,12.8927024,77.5987824,HSBC (Towards IIBM)
115,12.89591686,77.59954375,IIM Apollo 
116,12.90016624,77.60079178,Bilekahalli
117,12.90771344,77.60031173,JP Nagara 3rd Phase
118,12.90869812,77.6034758,NS Palya
120,12.91938495,77.59999955,Gurappanapalya
122,12.92668624,77.60038036,Ananda Ashrama
123,12.93561395,77.60122359,Bengaluru Dairy Circle (Towards Jayadeva Hospital)
124,12.97705906,77.58594229,Maharanis College
125,12.97879977,77.58490003,Maharanis College 
126,12.96962529,77.58719475,St Marthas Hospital
127,12.96828565,77.58939829,Corporation (Towards HAL MG Road)
128,12.96381149,77.58434159,Town Hall
130,12.97404146,77.59599068,Museum
131,12.97538948,77.60644427,MG Road Metro Station
132,12.96370285,77.6264945,Commando Hospital
133,12.95592607,77.71566912,Kundalahalli Gate
134,12.95585442,77.71376455,Kundalahalli Gate
135,12.95573591,77.72035565,Thubarahalli
136,12.95630253,77.73165313,Siddapura
137,12.95708526,77.74017069,Ramagondanahalli
138,12.96396766,77.74832851,Brooke Bond
139,12.97055338,77.74992933,White Field Post Office
140,12.96926404,77.74996365,White Field Post Office
141,12.95696911,77.74539676,Varthur Kodi
142,12.95689538,77.73969932,Ramagondanahalli
143,12.95606013,77.73072328,Siddapura
144,12.95586495,77.72048931,Thubarahalli
145,12.95818341,77.71569881,Kundalahalli
146,12.95693481,77.70070592,Marathahalli Bridge
147,12.95523694,77.68817378,Yamalur Cross
148,12.95508381,77.68799211,Yamalur Cross
149,12.95458612,77.68221743,HAL Kalyana Mantap 
150,12.95840103,77.66565285,HAL Main Gate (Towards Murugeshpalya)
152,12.95920774,77.65622463,Shiva Temple Murugeshpalya
153,12.9599491,77.64677806,Kodihalli
154,12.95971832,77.64938601,NAL Manipal Hospital 
155,12.9611437,77.63808964,Domlur (Towards HAL)
156,12.96126036,77.63614696,Domlur (Towards Commando Hospital)
157,12.97037888,77.59430906,St Joseph Boys High School Malya Hospital 
158,12.96483149,77.58802933,Corporation (Towards Subbiah Circle)
159,12.962654,77.59096469,Subbaiah Circle
160,12.97746154,77.57176681,Kempegowda Bus Station
161,12.9167867,77.62934068,SI Apartment HSR Layout
162,12.91634608,77.63508199,14th Main HSR Layout (Towards Agara)
163,12.9199016,77.64300216,Depot-25 Gate (Towards Hebbala)
165,12.90692687,77.54610097,KR Hospital Uttarahalli
166,12.9115049,77.55201441,Chikkallasandra Aralimara (Towards Uttarahalli)
167,12.91152991,77.55598373,Gowdanapalya
168,12.91183438,77.5584708,Prarthana School
169,12.91825997,77.55966843,Padmanabha Nagara
170,12.98217179,77.56769615,Okalipura
171,12.92636677,77.56101493,KIMS College
172,12.97571968,77.5603386,5th Cross Magadi Road
173,12.92922748,77.56441636,Indira Nursing Home
174,12.98067507,77.55837238,Gopalapura (Towards Magadi Road Tollgate)
175,12.93220096,77.56774533,Thyagarajanagara
176,12.93506496,77.56846829,KEB Quarters
177,12.93787607,77.56901154,NR Colony
178,12.93928652,77.57192883,Netkallappa Circle
179,12.97952896,77.5644609,Minerva Mill
180,12.94129382,77.57364841,Basavanagudi Police Station
181,12.94577155,77.5706474,Gandhi Bazaar
182,12.94900994,77.567645,Ramakrishna Ashrama
185,12.97314296,77.53810566,Vijayanagara
186,12.96770448,77.53632711,Maruthi Mandira
187,12.95768369,77.56733098,Chamarajapet (Towards Kempegowda Bus Station)
188,12.96380068,77.56833112,Vinayaka Talkies
189,12.98296333,77.57644167,KPCC Office
190,12.9677291,77.53617308,Maruthi Mandira
191,12.97185438,77.53764583,Vijayanagara
192,12.98756619,77.58040438,Shivananda Store
193,12.96841334,77.5866793,Corporation (Towards Cauvery Bhavan)
194,12.97426683,77.54457001,Manuvana
195,12.97267471,77.58176117,Mysore Bank
196,12.99975983,77.58390548,RM Guttahalli
197,12.97430901,77.55163576,Prasanna Theatre
198,12.97578029,77.55691837,10th Cross Magadi Road
199,13.01699119,77.5838126,Mekhri Circle
200,12.98069606,77.55784869,Gopalapura (Towards Sujatha Theatre)
201,13.02604395,77.58510763,CBI (Towards Hebbala)
202,12.98264395,77.56233968,Sujatha Talkies
203,13.02910478,77.59292564,Depot-14 RT Nagara
204,13.05024582,77.59316134,Military Dairy Farm 
205,12.9826941,77.5685801,Okalipura
206,12.97798854,77.57381632,Kempegowda Bus Station (Amara Hotel)
207,13.06550968,77.59298681,Byatarayanapura (Towards Yalahanka)
208,13.07288441,77.59248137,GKVK Gate (Towards Yalahanka)
209,13.04367943,77.59400728,Depot-28 Hebbala
211,13.07623121,77.59294404,Jakkur Aerodrum
212,13.07270203,77.59290979,GKVK Gate (Towards Hebbala)
213,13.04964238,77.59263379,Military Dairy Farm
214,13.03890176,77.58952077,Hebbala (Towards RM Guttahalli)
215,13.03576564,77.58903263,Canara Bank Hebbala
216,13.03026395,77.58693428,Veterinary Hospital
217,13.02581166,77.58529995,CBI (Towards Mekhri Circle)
218,13.01944763,77.58395839,Mekhri Circle
219,13.01040167,77.58400667,Palace Ground
220,12.98790722,77.58055865,Shivananda Store
221,12.98666279,77.57933728,Shivananda Store
222,12.9811145,77.57468557,Ananda Rao Circle
223,12.98781654,77.57456486,Swastik Sheshadripuram College 
224,12.99000666,77.57205761,Central
225,12.98984293,77.57177676,Central
226,13.00292613,77.57126014,11th Cross Malleshwaram 
227,13.00512833,77.571185,15th Cross Malleshwaram (Towards Yashawanthapura)
228,13.00898032,77.57143549,18th Cross Malleshwaram (Towards Bashyam Circle)
232,13.03632413,77.56668335,Devasandra Chikkamaranahalli
233,13.04323725,77.56125941,Kuvempu Circle
235,13.04946256,77.55739556,BEL Hospital
236,13.05596926,77.55748139,Nagaland Circle
237,13.05870064,77.55913193,Dodda Bommasandra Arch
238,13.06014033,77.55886558,Dodda Bommasandra
239,13.06480333,77.55955667,Chamundeshwari Layout
240,13.07009147,77.55539641,1st Block Vidyaranyapura
241,13.07428068,77.55728859,Lakshmi Venkateshwara Temple
242,13.07644838,77.55823393,Post Office Vidyaranyapura 
243,13.07982,77.559195,Echalamara Vidyaranyapura
244,13.08176,77.55969,Durga Parameshwari Temple
245,13.0838614,77.56022713,Vidyaranyapura
246,13.08167356,77.55974808,Durga Parameshwari Temple
247,13.07980117,77.55929432,Echalamara Vidyaranyapura
248,13.0763732,77.55825018,Post Office Vidyaranyapura
249,13.07427689,77.55735836,Lakshmi Venkateshwara Temple
250,13.07034954,77.55539859,1st Block Vidyaranyapura
251,13.06468976,77.55958892,Chamundeshwari Layout
252,13.06012057,77.55875878,Dodda Bommasandra
253,13.05867464,77.55922323,Dodda Bommasandra Arch
254,13.05586167,77.55720955,Nagaland Circle
255,13.05041627,77.55761601,BEL Hospital
256,13.045861,77.55652503,BEL Circle (Towards Baliga Circle)
257,13.04122662,77.55727222,Gokula
259,13.02883755,77.56153062,MS Ramaiah College
260,13.02633291,77.56183919,Diwanarapalya
261,13.02139756,77.56314794,Ayyappa Temple Yashawanthapura
262,13.01849827,77.56121464,TollGate Yeshwanthapura
263,12.99927824,77.57132394,8th Cross Malleshwaram (Sampige Road)
264,12.99424589,77.57398298,Link Road
265,12.98826273,77.5742975,Swastik Sheshadripuram College 
266,12.98903719,77.57434579,Swastik Sheshadripuram College 
267,12.98673662,77.57949258,Shivananda Store
268,12.96420069,77.57761288,KR Market
269,12.95357441,77.54377783,Mysore Road Satellite Bus Station
270,12.94849957,77.53558993,BHEL (Towards Nayandahalli)
272,12.94276094,77.5258688,Nayandahalli
273,12.94013413,77.5241064,BWSSB Quarters Nayandahalli
274,12.93621569,77.51661422,RR Gate
275,12.9354621,77.5129498,Bengaluru University Gate (Towards Kengeri)
276,12.93012611,77.50572237,Jayaram Das Factory
277,12.930219,77.50603404,Jayaram Das Factory
278,12.9251334,77.49935449,RV College
279,12.92268174,77.49604914,Dubasipalya Cross
280,12.9139541,77.48628165,Kengeri TTMC
281,12.91127473,77.48031246,Ganesha Temple Kengeri (Towards Kengeri TTMC)
282,12.91557126,77.48199851,Kengeri Post Office
283,12.91601899,77.479869,Robin Theatre
284,12.9187514,77.47089965,Beedi Karmikara Colony
285,12.92226994,77.47481293,Beedi Karmikara Colony Gate
286,12.92343361,77.47292166,Kengeri Club 
287,12.92999859,77.46509254,Kommaghatta
288,12.93262448,77.46165654,Ramasandra Cross
289,12.93437395,77.44831566,Byrohalli Gate
290,12.93605545,77.42879154,Krishnasagara
291,12.94145136,77.42532041,Gulaganjahalli Cross
292,12.95931167,77.42106571,Yalachaguppe
293,12.96582888,77.40010421,Tavarekere
294,12.96708714,77.40327097,Ganesha Temple Tavarekere
295,12.97001455,77.40997276,Lakkuppe
296,12.97427768,77.42118328,Honaganahatti
297,12.97798,77.43061833,Channenahalli (Towards Gollarahatti)
298,12.98414691,77.44395249,Seegehalli Gate
299,12.98910902,77.44956951,Kadabagere Cross
300,12.99088122,77.45436234,Machohalli Gate
301,12.99179167,77.45925833,Forest Gate (Towards Gollarahatti)
302,12.99150042,77.46560203,Chikka Gollarahatti
303,12.99053845,77.46871576,Kachohalli Gate
304,12.98862886,77.47281386,Gollarahatti (Towards Sunkadakatte)
305,12.98618371,77.48814919,Anjananagara
306,12.9874032,77.49257498,Herohalli Cross (Towards Sunkadakatte)
307,12.98897848,77.49932013,Janapriya Apartment
308,12.98954088,77.5060987,Sunkadakatte
309,12.98774288,77.51389285,Kottigepalya
310,12.98660136,77.5211953,Summanahalli
311,12.98384868,77.52919176,Kamakshipalya
312,12.98127633,77.53552997,KHB Colony
313,12.97852542,77.54296472,Agrahara Dasarahalli
314,12.97468137,77.54886863,Magadi Road TollGate
315,12.97429539,77.54912714,Magadi Road TollGate
316,12.97562056,77.55644764,10th Cross Magadi Road
317,12.97587214,77.56328904,1st Cross Magadi Road
318,12.97034366,77.56618933,Binny Mill
320,12.96015353,77.55914091,Sirsi Circle
321,12.96091978,77.58827714,Poornima Talkies
322,12.91968893,77.59247305,9th Block Jayanagara (40th Cross)
323,12.92306884,77.59343565,4th T Block Jayanagara
324,12.92699075,77.59297859,Sanjay Gandhi Hospital
328,12.9826245,77.63528692,Depot-06 Gate
329,12.98365891,77.63925413,Binnamangala (Towards Tin Factory)
330,12.98510315,77.64310761,Isolation Hospital
331,12.98790644,77.64995977,NGEF
332,12.99013657,77.65467656,Bayyappanahalli Metro Station
333,12.99422423,77.6631548,Benniganahalli
334,12.99712871,77.66965958,Tin Factory
335,12.99697042,77.66929525,Tin Factory
336,13.00021342,77.67596501,Railway Station KR Puram
337,12.9971374,77.66288018,Benniganahalli Bridge
339,12.98494942,77.643297,Isolation Hospital
341,12.97782978,77.60194445,MG Road
342,12.96357668,77.58426144,Town Hall
343,12.95362569,77.57994411,Minerva Circle
344,12.94752823,77.58013838,Lalbagh West Gate
345,12.94391987,77.57679563,MN Krishnarao Park
346,12.94004874,77.58017077,Vijaya College
347,12.94120422,77.58017721,Vijaya College
349,12.92922374,77.58609834,Jayanagara 4th Block
350,12.92710589,77.59296362,Sanjay Gandhi Hospital
351,12.93978245,77.59789382,Nimhans Hospital
352,12.95407694,77.58567716,Lalbagh Main Gate
353,12.95772479,77.5931178,KH Road
357,12.89760334,77.57147635,Yelachenahalli
358,13.02842594,77.5617065,MS Ramaiah College
359,12.91270327,77.6380683,BDA Complex HSR Layout
360,12.91213667,77.65196,NIFT College
362,12.91967254,77.64301614,Depot-25 Gate (Central Silk Board)
363,12.93711834,77.60196929,Bengaluru Dairy Circle (Towards Madiwala)
364,12.95248685,77.58339215,Lalbagh Main Gate
365,12.94618955,77.58877655,Siddapura
366,12.96078086,77.60083466,Nanjappa Circle
367,12.96136399,77.59951044,Nanjappa Circle
369,12.83996363,77.677011,Veerasandra
370,12.83992719,77.67685594,Veerasandra
371,12.82754484,77.68215119,Hebbagodi
372,12.81943759,77.68841431,Bommasandra (Towards Electronic City)
373,12.81187469,77.69478036,BTL College
374,12.80603772,77.69920467,Hennagara Gate
375,12.80254817,77.70453724,Chandapura (Towards Attibele)
376,12.802234,77.70448188,Chandapura (Towards Electronic City)
377,12.79398167,77.7219812,Tirumagondanahalli
378,12.79230904,77.72832798,Neraluru Gate
379,12.78810967,77.7370657,Guddahatti Gate
380,12.78680108,77.74173993,Guestline Hotel
381,12.78558651,77.75080534,Yadavanahalli
382,12.7909941,77.77635836,Indlubele
383,12.80576063,77.78349795,Bidaraguppe Towards Sarjapura)
384,12.81587333,77.78529,BHEL Navaratna Layout
385,12.8351599,77.78544687,Exide Gate
386,12.83740366,77.78506491,Billapura
388,12.86772933,77.76711042,Crystal Apartment Sarjapura Road 
389,12.87930931,77.76156589,Chambenahalli
390,12.88169167,77.75699333,Thigalara Chowdenahalli Cross
391,12.8793331,77.75417927,Dommasandra
392,12.92137,77.73641167,Gunjuru (Towards Sarjapura)
393,12.92871,77.73950667,Vinayaka Nagara
394,12.9424705,77.74709889,Varthuru Govt College
395,12.95760637,77.74573931,Varthur kodi
397,12.97383197,77.75027443,Sai Baba General Hospital
400,12.98535216,77.74768614,BPL (Towards ITPL)
401,12.98661014,77.74394584,GR Tech Park ITPL
402,12.9875598,77.73696825,ITPL
403,12.98794716,77.73380882,Pattandur Agrahara Gate
404,12.98814515,77.73144021,Big Bazzar  ITPL
405,12.99129818,77.72117091,Rajapalya
406,12.99228224,77.71630953,Hoodi (Towards Hope Farm)
407,12.99189379,77.71519958,Hoodi (Towards ITPL)
408,12.99560151,77.69474547,Singaianapalya Phoenix
410,13.00216259,77.68404962,Depot-24 ITI Layout
411,13.00003426,77.676516,Railway Station KR Puram
412,12.99646295,77.66866723,Tin Factory
413,13.00398938,77.66317961,Kasthuri Nagara Ring Road
414,13.01331169,77.66178917,B Channasandra Bridge
415,13.02233464,77.64745137,Babusabpalya (Towards Hebbala)
417,13.04032301,77.6240061,Jn of Nagawara
418,13.04323288,77.60934912,Lumbini garden
419,13.0437473,77.60050173,Kempapura
420,13.00889883,77.57105172,18th Cross Malleshwaram (Towards YTTMC)
421,13.01000486,77.56255973,18th Cross Malleshwaram (Towards Malleshwaram Circle)
422,13.02361443,77.54869789,RMC Yard (Yashawanthapura New Railway Station)
423,13.03133898,77.53577499,CMTI (Towards Yashwanthapura TTMC)
424,13.02874689,77.54046209,Goraguntepaly Metro Station
425,13.0361155,77.52566048,Peenya Metro Station
427,13.04507333,77.50757532,8th Mile (Towards Nelamangala)
428,13.05015426,77.49248739,Marison Factory
429,13.05189077,77.48776568,Chikkabidarakallu
430,13.05506122,77.47887503,Anchepalya (Towards Nelamangala)
431,13.05898761,77.46471624,TCI
433,13.07516758,77.43594626,Dasanapura (Towards Nelamangala)
434,13.07719806,77.43158513,Devannanapalya
435,13.0797522,77.42398115,Arishinakunte (Towards Nelamangala)
436,13.08406595,77.41710731,Vishwa Shanti Ashrama
437,13.09400697,77.40561959,Weavers Colony Nelamangala
438,13.09706072,77.40145556,TB Nelamangala
439,13.09733054,77.39782978,Anjaneya Temple Nelamangala
440,13.09780909,77.39428055,Nelamangala Bus Station
442,13.09739405,77.39777114,Anjaneya Temple Nelamangala 
443,13.09725598,77.40132073,TB Nelamangala
444,13.00691877,77.59278171,Munireddy Palya J C Nagara 
445,13.0942372,77.40555264,Weavers Colony Nelamangala
447,13.08752725,77.41248327,Binnamangala (Towards Jalahalli Cross)
449,13.08410175,77.41727305,Vishwa Shanti Ashrama
450,13.07768653,77.431431,Devannanapalya
451,13.07539361,77.4363575,Dasanapura (Towards Jalahalli Cross)
454,13.05667796,77.47472317,Madavara
455,13.05526591,77.4798162,Anchepalya (Towards Jalahalli Cross)
456,12.98992431,77.59933748,CSI Hospital
457,13.04004425,77.518585,Jalahalli Cross
459,13.03471706,77.5299655,SRS Peenya
460,13.02654709,77.54434885,MEI Factory
462,13.02947712,77.54009753,Goraguntepalya (Towards BEL Circle)
463,13.01849841,77.55342591,Govardhan Talkies (Towards Malleshwaram)
464,12.97278661,77.62064923,Lido Talkies
465,12.97845448,77.62908244,Halasuru
466,12.97824403,77.63695975,Double Road Indiranagara 
468,12.97787804,77.64662799,CMH Hospital (Towards Indira Nagara Police Station)
469,12.973752,77.64708931,Thippasandra
470,12.97417566,77.64683428,Thippasandra
471,12.97783263,77.64682695,CMH Hospital (Towards CV Raman Nagara)
472,12.97837323,77.64610277,CMH Hospital (Towards Halasuru)
473,12.97828671,77.6404186,Police Station Indiranagara
474,12.97816516,77.63591788,Double Road Indiranagara 
475,12.9782321,77.6321222,Lakshmipura
476,12.9777342,77.62809777,Halasuru
477,12.97270831,77.62142768,Lido Talkies
478,12.97566035,77.61315062,Manipal Centre MG Road
479,12.9778293,77.59867555,Chinnaswamy Stadium
480,12.98378941,77.6031589,Shivajinagara Bus Station
481,12.98411256,77.59735287,Indian Express
482,12.98412072,77.58671525,RC College
485,13.0087446,77.56893767,Malleshwaram Bus Stand
486,13.00962722,77.59052356,TV Tower
487,13.01026957,77.58373196,Palace Ground
488,13.01467725,77.57497374,CPRI
489,13.04747631,77.57578825,Bhadrappa Layout (Towards Hebbala)
490,13.03394374,77.56869317,ITI Layout
491,13.01999619,77.55268998,Govardhan Talkies (Towards Jalahalli Cross)
492,13.02465304,77.54778846,RMC Yard (Yashawanthapura New Railway Station)
493,13.0263547,77.54402881,MEI Factory
494,13.02882463,77.53963211,Goraguntepalya (Towards Jalahalli Cross)
495,13.03064786,77.53631696,CMTI (Towards Jalahalli Cross)
496,13.03422307,77.53038297,SRS Peenya
497,13.01450799,77.58262879,Mekhri Circle
498,13.04661941,77.52259909,Ayyappa Temple Jalahalli Cross
499,13.01306282,77.5676243,Tata Institute
500,13.01774654,77.5592109,Yeshwanthapura Circle
501,13.01784025,77.55654693,Yeshwanthapura TTMC
502,13.02839423,77.51947193,TVS Cross Peenya
503,13.01175164,77.55180104,Iskcon Temple
504,13.02644614,77.5146827,Rolling Mill
505,13.04388333,77.55436167,MES Road
506,13.00738919,77.54882006,Mahalakshmi Layout Entrance
507,13.02475305,77.51099375,NTTF Peenya
508,13.0425206,77.5498519,Jalahalli Bakery
509,13.00539561,77.54899206,1st Block Rajajinagara
510,13.02040834,77.50815434,Brundavana Peenya
511,13.04172833,77.54743833,Jalahalli Village Gate 
512,13.01636157,77.50583551,14th Cross Peenya (Towards Peenya)
513,12.99745955,77.54892223,Navarang Theatre
514,13.01375453,77.50883757,Rajagopalanagara
515,13.00096838,77.53628632,Kurubarahalli
516,13.01080561,77.50684531,Peenya 2nd stage
517,12.99534732,77.53985602,Water Tank Kamalanagara
518,13.01677035,77.5056847,14th Cross Peenya (Towards NTTF)
519,12.99178709,77.53851032,8th Main Kamalanagara (Towards Basaveshwaranagara)
520,12.98768629,77.53753865,Havanur Circle (Towards Unani Hospital)
521,13.02848485,77.53620576,Reliance Petrol Bunk Goraguntepalya
522,12.98108651,77.5355798,KHB Colony
523,13.02486191,77.53406412,Modern Food Goraguntepalya
524,13.02158224,77.53528354,Kanteerava Studio
526,12.98797937,77.53709964,Havanur Circle (Towards Basaveshwara Nagara New Bus Station)
527,12.98893672,77.53772375,Havanur Circle (Towards KHB Colony)
528,12.99253582,77.53872112,8th Main Kamalanagara (Towards Shankarmutt)
529,13.02180225,77.5319544,Kanteerava Studio
530,12.99579361,77.53995217,Water Tank Kamalanagara
531,12.99911538,77.54162477,Shankar Mutt
532,12.99737358,77.54591071,Modi Hospital
533,13.01548324,77.52602368,Lakshmidevi Nagara
534,12.99941968,77.54980786,Navarang Theatre
535,13.00447566,77.54894388,1st Block Rajajinagara
538,13.01510243,77.563861,Tata Institute
539,12.99266,77.530685,Kamalanagara
540,13.01455024,77.58480081,Mekhri Circle
541,12.98372117,77.52911263,Kamakshipalya
542,12.98734846,77.51915284,Summanahalli
543,13.01479223,77.57487228,CPRI
544,12.9877622,77.51520384,Kottigepalya
545,12.9858938,77.51161817,Vokkaliga School Kottigepalya
547,12.96644869,77.50511787,Deepa Complex
548,12.96309009,77.50517875,Ambedkar Institute of Technology
549,12.96041662,77.50493649,Kengunte Circle
550,12.95744184,77.50325133,Mallathahalli Cross
551,12.94999731,77.50087248,Bengaluru University Administrative Block
552,12.94522521,77.49552935,Mariyappanapalya
553,12.94150431,77.49358887,Kenchanapura Cross
554,12.93585372,77.49242237,Nagadevanahalli
555,12.93164534,77.4877241,Shirke KHB Quarters
556,12.92825849,77.48660911,Kengeri Church
557,12.92378203,77.4849784,Satellite Town Kengeri
558,12.92163211,77.48418523,Society Kengeri Satellite Town  
559,12.91683163,77.48243264,Railway Station Kengeri
560,12.9143735,77.48148508,Jn of Kommaghatta
562,12.91043803,77.48209996,Police Station Kengeri
563,12.9176031,77.49047137,Mylasandra Cross
564,12.92288098,77.49601394,Dubasipalya Cross
565,12.92535239,77.49922356,RV College
567,12.93572605,77.5134225,Bengaluru University Gate (Towards Nayandahalli)
568,12.93645079,77.5184103,RR Gate
569,12.9428988,77.52575553,Nayandahalli
570,12.94593111,77.52638885,Railway Gate Nayandahalli
571,12.9450264,77.52858343,Jn of Nayandahalli
572,12.93807058,77.53372138,Veerabhadra Nagara
573,12.93533168,77.5367457,PES College
575,12.93048511,77.54362611,Hoskerehalli Cross
576,12.92842265,77.54590089,Janatha Bazaar  Banashankari
577,12.92503965,77.55039624,Kathriguppe
578,12.92191968,77.56051329,Devegowda Petrol Bunk (Towards Kadirenahalli Cross)
579,12.91391963,77.56660329,Kadirenahalli Cross
580,12.915725,77.56937167,Yarab Nagara
581,12.91973173,77.56935555,Kaveri Nagara
582,12.92181277,77.57052222,Monotype Corporation
583,12.91767509,77.57401765,Banashankari Bus Station
584,12.97887554,77.58477431,Maharanis College 
586,12.97933727,77.59216777,Vidhana Soudha Karnataka High Court 
587,12.9834746,77.59634127,Indian Express
588,12.99278817,77.59495232,Vasantha Nagara
590,12.99183405,77.60245694,HK Degree College
591,12.99554851,77.60656584,Coles Park (Towards Doddy)
592,13.00095911,77.61294625,Frazer Town
593,13.00226912,77.6166513,Clarence School (Towards Banasawadi)
594,13.00842014,77.69501092,KR Puram Market
595,13.00155801,77.62987783,Jai Bharath Nagara 
596,13.00271564,77.63470238,Maruthi Sevanagara
597,13.01164403,77.69858422,KR Puram Extension
598,13.00726325,77.64036597,Subbayanapalya
599,13.01736543,77.70477916,TC Palya  Gate
600,13.02027184,77.7095704,Bhattarahalli
601,13.0238599,77.71585556,SJES College
602,13.02648177,77.7205736,Medahalli
603,13.03265537,77.73113382,Cipla Avalahalli 
604,13.03615133,77.73601632,Avalahalli (Towards Hoskote)
606,13.03923159,77.73992234,Cheemasandra Gate
607,13.04220684,77.74454132,Bandapura Gate
608,13.02331241,77.65831643,RK Medical
609,13.02652991,77.66096296,Horamavu 
610,13.05088651,77.75661428,Sapthagiri Convention Hall
611,13.02645755,77.66082713,Horamavu
612,13.05383934,77.76193267,Katamanallur Gate
613,13.02255263,77.65781391,RK Medical
615,13.07026084,77.78401346,Hoskote High School
617,13.07529072,77.78633972,Hoskote Flower Market
618,13.07877548,77.78811693,Hoskote Bus Stand
619,13.07869949,77.78758834,Hoskote Bus Stand
621,13.07509049,77.78640485,Hoskote Flower Market
623,13.00969932,77.64437935,Maruthi School
625,13.07034012,77.78347622,Hoskote High School
626,13.05605429,77.76743884,Hoskote Kodi
627,12.99861491,77.62196905,ITC Factory
628,13.05308024,77.76140698,Katamanallur Gate
629,13.05030602,77.75662613,Sapthagiri Convention Hall
631,13.04153526,77.74428367,Bandapura Gate
632,13.00072514,77.61469434,Clarence School (Towards Masque Road)
633,13.03891867,77.74057609,Cheemasandra Gate
634,13.03572917,77.73533814,Avalahalli (Towards Ramapura)
635,13.03224368,77.73126138,Cipla Avalahalli 
636,13.00034404,77.61599862,Mosque Road
637,13.02592117,77.72038924,Medahalli
638,13.02326745,77.71546075,SJES College
639,12.99467078,77.60804639,Coles Park (Towards Bomboo Bazar)
640,13.01963137,77.70925083,Bhattarahalli
641,13.01676974,77.70417849,TC Palya  Gate
642,13.011327,77.69866714,KR Puram Extension
643,12.99177784,77.60245274,HK Degree College
644,13.00813739,77.69501132,KR Puram Market
645,12.98174883,77.594833,GPO
646,13.00783558,77.69255201,KR Puram Govt Hospital
647,12.97688305,77.58569761,Maharanis College
648,12.90655206,77.57763641,JP Nagara 6th Phase
649,13.00565534,77.68458469,ITI Colony Gate
651,13.01171853,77.67901191,Ramamurthy Nagara Church
652,12.97349267,77.58150066,Cauvery Bhavana
653,13.01202942,77.66792901,Ramamurthy Nagara Police Station
654,12.98907501,77.58865425,High Ground Police Station
655,13.01113468,77.66231131,Ramamurthy Nagara Ring Road
656,13.01443673,77.658135,New Baldwin School
657,12.99384083,77.59731729,Cantonment Railway Station
658,13.01425859,77.65095461,Banasawadi (Towards Shivajinagara)
659,12.99219243,77.60414818,Bamboo Bazaar
660,13.01306819,77.64944228,Steel Factory Banaswadi
662,13.00987519,77.64430819,Maruthi School
664,13.00257755,77.61206767,Doddy (Towards Periyarnagara)
665,13.00544295,77.63867969,Indian Oil
666,13.00262563,77.63470858,Maruthi Sevanagara
667,13.00680094,77.61247259,Canara Bank Tannery Road
668,12.99851282,77.6223711,ITC Factory
669,13.01065236,77.61517909,Muslim Colony
670,13.01512125,77.61731724,Venkateshapura
671,13.02070393,77.61894458,Kadugondanahalli Police Station
672,13.02593572,77.61989335,KGH Railway Gate
673,13.02993,77.620835,Arebic College
674,13.03217381,77.62178011,Govindapura Cross (Towards Glass Factory)
675,13.00031693,77.61607925,Mosque Road
676,13.03390667,77.62250667,Glass Factory (Towards Nagavara)
677,13.03798852,77.62334539,Nagavara
678,12.9951789,77.60820981,Coles Park (Towards Frazer Town)
679,13.03722667,77.62340833,Nagavara
680,12.98188899,77.58860656,Telephone Exchange AGO 
681,13.03459573,77.62281553,Glass Factory (Towards Govindapura Cross)
682,12.98956671,77.5928501,Chandrika Hotel
683,13.032325,77.62198833,Govindapura Cross (Towards Arabic College)
684,13.03034254,77.62103069,Arebic College
685,12.97375598,77.58149618,Cauvery Bhavana
686,13.02591912,77.61995411,KGH Railway Gate
687,13.01524431,77.61754461,Venkateshapura
688,13.01059863,77.61522169,Muslim Colony
689,13.00302002,77.6035388,Chinnappa Garden
690,12.97748679,77.5906879,Vidhana Soudha
691,12.98376632,77.59637996,Indian Express
692,12.98787488,77.59432448,Cunningham Road
693,12.99524363,77.59213849,Ganesha Temple Vasanthanagara
694,12.99173198,77.60188864,Bamboo Bazaar
695,12.9841816,77.59752785,Indian Express
698,13.00143514,77.62997623,Jai Bharath Nagara
699,13.00596028,77.63875701,Indian Oil
700,13.00755014,77.64091159,Subbayanapalya
701,13.01330208,77.64958775,Steel Factory Banaswadi
702,13.01437802,77.65093493,Banasawadi (Towards B Channasandra)
703,13.01449056,77.657725,New Baldwin School
704,13.01322821,77.66268404,B Channasandra Bridge (Towards RM Nagara Police Station)
705,13.01199212,77.66789429,Ramamurthy Nagara Police Station
706,13.00798593,77.68333056,ITI Circle
707,13.00547485,77.6853075,ITI Colony Gate
708,13.00819893,77.69231077,KR Puram Govt Hospital
710,12.90624011,77.59451897,JP Nagara 4th Phase
711,12.90625672,77.59037453,JP Nagara 5th Phase 
712,12.90156673,77.57328574,Jaraganahalli Cross
715,12.90633076,77.57773955,JP Nagara 6th Phase
718,12.90711325,77.60010014,JP Nagara 3rd Phase
720,12.91662566,77.59948312,Jayadeva Hospital
721,12.91673202,77.59621961,East End Jayanagara (Towards Banashankari)
722,12.91677858,77.59340863,Ragigudda Temple
723,12.91695518,77.58382017,5th Block Jayanagara (Towards Banashankari)
724,12.91470545,77.58591929,Marenahalli
726,12.90972484,77.58584009,RV Dental College
727,12.90666812,77.58592491,JP Nagara 15th Cross
729,12.89804745,77.58282401,Puttenahalli
731,12.89258426,77.58201744,Brigade Millenium
732,12.88786948,77.58197376,RBI Layout
733,12.88480425,77.58272789,Gowrava Nagara
734,12.88127302,77.58390739,Navodaya Nagara
735,12.87689424,77.58414217,Kothanuru Dinne Ganesha Temple
736,12.87456962,77.58417447,Water Tank Kothanur Dinne
737,12.87056481,77.58308788,BK Circle (Towards Jambu Savari Dinne)
738,12.86573688,77.5809352,Jambu Savari Dinne
739,12.86925209,77.57573416,Royal Layout
740,12.8765536,77.56694553,Glass Factory (Towards Jambusavari Dinne)
741,12.87491383,77.56979351,Vinayaka Talkies
742,12.87912675,77.56725783,Hari Nagara Cross
743,12.88389647,77.56666111,Sowdamini Kalyana Mantapa
744,12.88577387,77.56674503,Konanakunte
745,12.89042657,77.56447522,Konanakunte Cross
746,12.89058026,77.56436858,Konanakunte Cross
747,12.885802,77.56679063,Konanakunte
748,12.8838446,77.56670845,Sowdamini Kalyana Mantapa
749,12.87915241,77.56732079,Hari Nagara Cross
750,12.8765385,77.56688352,Glass Factory (Towards Konanakunte Cross)
751,12.87476065,77.5701941,Vinayaka Chitramandira
752,12.87389338,77.57319452,Sarathi Nagara
753,12.86920233,77.57591187,Royal Layout
754,12.8658724,77.58086869,Jambu Savari Dinne
755,12.86746335,77.58189067,Surabhi Layout
756,12.87061642,77.58310397,BK Circle (Towards Kothanuru Dinne)
757,12.87442454,77.58409085,Water Tank Kothanur Dinne
758,12.8774373,77.58388831,Kothanuru Dinne Ganesha Temple
759,12.88139099,77.58379239,Navodaya Nagara
760,12.88472764,77.58266729,Gowrava Nagara
761,12.88799399,77.58191299,RBI Layout
762,12.89248505,77.58186807,Brigade Millenium
763,12.89563317,77.58183449,Puttenahallipalya
764,12.89815656,77.58255518,Puttenahalli
765,12.91591079,77.65171018,19th Main 13th Cross HSR Layout
766,12.90251665,77.5831965,Oxford Dental College
767,12.89319874,77.56730131,Metro
768,12.90714918,77.58563153,JP Nagara 15th Cross
769,12.92442011,77.65015543,Agara Junction
770,12.92453611,77.6503715,Agara Junction (Towards Hebbala)
771,12.91137269,77.58563083,RV Dental College
773,12.9108518,77.57862069,Indiragandhi Circle
774,12.90950472,77.57303304,Sarakki
775,12.91132728,77.57458276,JP Nagara 1st Phase
776,12.91096642,77.57877829,Indiragandhi Circle
777,12.9104418,77.58314877,JP Nagara 24th Main 9th Cross
778,12.91359167,77.59972833,MICO Layout Checkpost Gopalan mall 
779,12.77903769,77.64376339,Jigani APC Circle
780,12.7792,77.64368302,Jigani APC Circle
781,12.79140579,77.65704161,Jn of Ring Road Bommasandra 
782,12.791936,77.6578839,Maruthi Nagara
783,12.79919913,77.66106847,OMEX Circle Sriramapura 
788,12.82561203,77.68296677,Hebbagodi
789,12.81808194,77.69001137,Bommasandra (Towards Chandapura)
790,12.81199283,77.68095784,Kottanayakana halli
791,12.81695043,77.67616644,Industrial Area Water Tank Bommasandra
792,12.81164957,77.66600705,Rupesh Hotel
793,12.8078373,77.66380208,Biocon Jigani Road
794,12.80471799,77.66291207,Yarandahalli
795,12.80233797,77.66218483,Sriramapura Bommasandra Road 
796,12.79905598,77.66146437,OMEX Circle Sriramapura 
797,12.8022368,77.66201386,Sriramapura Bommasandra Road 
798,12.7913977,77.65766481,Maruthi Nagara
799,12.78722794,77.65396254,Navya Badavane 
800,12.77905065,77.6434747,Jigani APC Circle
801,13.05059084,77.53509012,HMT Watch Factory
802,13.03151537,77.50353056,Nelagadarenahalli
803,13.02992331,77.50025371,Gruhalakshmi Layout
804,13.02823251,77.49635391,Ganga International School
807,13.02492724,77.48657899,Kari Obanahalli
808,13.01681819,77.48299903,Thigalarapalya
809,13.0156903,77.48416709,Garudappa Circle Thigalarapalya
810,13.01369315,77.48343719,Anjaneya Temple Thigalarapalya
811,13.00953829,77.48292203,Andhrahalli Govt School
812,13.00799641,77.48476578,Andhrahalli
813,13.00863888,77.49020454,Kalikanagara Shiva Temple
815,13.00892483,77.4902395,Kalikanagara Shiva Temple
816,13.00804629,77.48480746,Andhrahalli
817,13.00947448,77.48290149,Andhrahalli Govt School
818,13.01375915,77.48339039,Anjaneya Temple Thigalarapalya
819,13.01571108,77.48410256,Garudappa Circle Thigalarapalya
820,13.02500753,77.48657218,Kari Obanahalli
822,13.02766486,77.49366585,Indiranagara
823,13.02825646,77.49628693,Ganga International School
825,13.03152994,77.50344481,Nelagadarenahalli
827,12.98729818,77.66215423,Nagavarapalya
829,12.99178027,77.65181391,Krishnayyana Palya NGEF
830,12.9873555,77.66224776,Nagavarapalya
831,12.98403767,77.67891547,Kaggadasapura
832,12.98072801,77.6567011,Bagmane Tech Park
833,12.98078694,77.65657444,Bagmane Tech Park
834,12.97982018,77.65435972,APJ Abdul Kalam Statue
835,12.9800052,77.65439703,APJ Abdul Kalam Statue
836,12.97898305,77.65323199,Geetanjali Layout
837,12.97897701,77.65349673,Geetanjali Layout
840,12.96686455,77.66164095,Jeevanbheema Nagara Cross
841,12.96675632,77.66143341,Jeevanbheema Nagara Cross
842,12.98576208,77.66380998,CV Raman Nagara (Towards Benniganahalli)
843,12.98548955,77.67235716,Kaggadasapura Main Road
845,12.97260991,77.67786259,Malleshpalya New Bus Station
846,12.96670184,77.62079318,Military Accounts Office
847,12.95593447,77.67664333,Helicopter Division
849,12.95580642,77.67741628,Helicopter Division
851,12.99713716,77.6905052,Mahadevapura
852,12.99132156,77.68773031,Mahadevapura Ring Road
853,12.973501,77.61015285,Mayohall
854,12.96748409,77.59948571,Richmond Circle
855,13.04265607,77.51322116,T Dasarahalli
856,13.04508018,77.50855827,8th Mile (Towards Jalahalli Cross)
857,13.04866771,77.49673112,Widia Factory
858,13.05349302,77.48336444,Jindal
859,13.05658623,77.47335083,Madavara
860,13.06559596,77.45324038,Makali
861,13.07036278,77.44462655,Adakimaranahalli (Nelamangala)
862,13.0874753,77.41238187,Binnamangala Towads Nelamangala)
863,13.08030642,77.42405923,Arishinakunte (Towards Jalahalli Cross)
864,13.07072696,77.44490183,Adakimaranahalli (Nelamangala)
865,13.06588666,77.45354204,Makali
866,13.0609732,77.46183756,Madanayakanahalli
867,13.05922617,77.46540934,TCI
868,13.05397828,77.48317663,Jindal
869,13.0524131,77.48755572,Chikkabidarakallu
870,13.05067977,77.49239188,Marison Factory
871,13.04904893,77.49697079,Widia Factory
872,13.0430362,77.51312934,T Dasarahalli
873,13.05113705,77.50767684,Widia School
874,13.05631085,77.50726038,Bagalagunte (Towards Chikkabanavara)
875,13.06398162,77.50487359,Bone Mill (Towards Chikkabanavara)
876,13.05128033,77.50786315,Widia School
877,13.07328367,77.50315825,Janapriya Apartment
878,13.08046675,77.50240174,Chikka Banavara (Towards Hesaraghatta)
879,13.06249401,77.49514502,Sidedahalli
880,13.075354,77.50461062,Railway Station Chikkabanavara
881,13.0648248,77.51723045,Shettyhalli
882,13.05037284,77.52575453,Shettahalli Cross
883,13.05297379,77.53023505,IAF Jalahalli 
884,13.05350532,77.53065538,IAF Jalahalli 
885,13.05484989,77.53461914,Kammagondanahalli Bridge
886,13.05465338,77.54092557,Fathima Church Gangamma Circle
887,13.0564069,77.54639828,Gangamma Circle (Towards KG Halli Bridge)
888,13.05346155,77.55054803,HMT Club House
889,13.05180862,77.55187072,BEL Market
890,13.05164917,77.55206127,BEL Market
891,13.04980974,77.55352233,State Bank of India
892,13.04931774,77.55400321,State Bank of India
893,13.04609002,77.55592314,BEL Circle (Towards Gangamma Circle)
894,13.04508407,77.55670088,BEL Circle (Towards Mathikere)
895,13.06960309,77.54138056,Kuvempunagara
896,13.07312748,77.54132246,2nd stage Kuvempunagara
897,13.0795977,77.53825593,Singapura
898,13.08159747,77.54823726,MS Palya
899,13.08376314,77.56025804,Vidyaranyapura
900,13.05987081,77.57666849,Kodigehalli
901,13.0867693,77.5976387,Kodigehalli Gate
902,13.06696042,77.59337292,Byatarayanapura (Towards Hebbala)
903,12.90393306,77.50841481,JSS College
904,13.06568309,77.60078122,Amruthahalli
905,12.90698486,77.51216381,Glass House
906,12.90990035,77.51342614,Bengaluru Children Hospital
907,13.06952219,77.60175047,Jakkur Layout
908,12.91293951,77.51364793,Jnanakshi Layout
909,12.91561404,77.51341757,Double Road BEML Layout
910,12.92023676,77.51396004,Halage Vaderahalli
911,12.92264521,77.51431289,Maramma Temple Halage Vaderahalli
913,13.0793814,77.60763825,Jakkur
914,12.92777054,77.51420978,RR School
915,12.93288749,77.51612896,Petrol Bunk RR Nagara
916,12.93556644,77.51806826,RR Gate
917,13.07169582,77.6189879,Venkateshwara Nagara Cross
918,12.93581559,77.51830173,RR Gate
919,13.06811209,77.62885211,Shivaram Karanth Nagara
921,12.9277196,77.51415983,RR School
922,12.92270871,77.5143567,Maramma Temple Halage Vaderahalli
923,13.06630811,77.64068328,K Narayanapura Main Bus Stand
924,12.92008081,77.51395215,Halage Vaderahalli
925,12.91614519,77.51305713,BHEL Layout Cross
926,12.91288058,77.51371199,Jnanakshi Layout
927,12.90985362,77.51346964,Bengaluru Children Hospital
928,12.90409688,77.51236914,Indo American Hybrid Farm
929,12.90381871,77.50850135,JSS College
930,12.90481156,77.53011235,Patalamma Temple
931,12.89879995,77.65129607,Somasandra Palya
932,12.90281228,77.52150826,Channasandra (Towards Kengeri)
933,13.07140669,77.63356145,RK Hegde Nagara
936,12.90667884,77.52179885,BEML Layout 5th stage
937,12.9122157,77.651797,NIFT College
938,12.90985604,77.52095925,Kuvempu Circle
939,12.91679578,77.62172923,Central Silk Board (Towards BSK)
940,12.9149302,77.520712,Double Road BEML Layout
941,12.92373455,77.65175584,Agara HSR Layout 27th Main
942,12.91950704,77.52030955,BEML Complex
943,12.92279619,77.51832061,Ideal Homes
944,12.92497892,77.51783195,Nimishamba Temple
945,12.92478392,77.51799977,Nimishamba Temple
946,12.92271303,77.51845171,Ideal Homes
947,12.92006302,77.52041397,BEML Complex
948,12.91466179,77.52059359,Double Road BEML Layout
949,12.90983524,77.52102413,Kuvempu Circle
951,12.90286366,77.52127383,Channasandra (Towards BEML 5th Stage)
952,13.02428766,77.59285585,Police Station RT Nagara 
953,13.02691051,77.5857832,CBI (Towards Vetarnary College)
954,13.07166148,77.63367658,RK Hegde Nagara
955,13.03258335,77.5876404,Veterinary Hospital
956,12.844463,77.58344484,Weavers Colony
957,12.84134275,77.58858599,Koli Farm Gate
959,12.89245654,77.45777966,Anchepalya
960,13.08588998,77.55564058,Jally Machine
961,12.88675869,77.45107497,Ramohalli Cross
962,13.08942723,77.55613517,Chikka Bettahalli
963,13.09247554,77.55948592,Bettahalli Layout
964,12.8785814,77.44560029,Kumbalagodu
965,13.09773354,77.56316898,Thirumala Dhaba
966,12.87207623,77.43942671,Pepsi Gate
967,12.86312181,77.43372755,Kanminake
968,12.85539649,77.42692796,Hejjala Cross
969,13.0994689,77.57707882,Mother Dairy Cross Yelahanka
970,12.85051258,77.42432927,Dalai Lama College
971,12.84354145,77.42137843,Sheshagirihalli
972,13.09563048,77.57898433,Yelahanka Satellite Town
973,12.83427328,77.414531,Manchanayakanahalli Gate
974,13.0977288,77.5843363,Sharavathi Hotel
975,12.82861695,77.4121966,Veeranjaneya Temple
976,13.10026466,77.58853287,Sheshadripuram College
977,13.09779197,77.59169501,NES Office
978,12.81198221,77.4039782,Billa Kempanahalli Gate
979,12.80216588,77.39703747,Byramangala Cross (Towards Bidadi)
980,13.09771203,77.59148633,NES Office
981,13.10038064,77.58865078,Sheshadripuram College
982,12.79970173,77.39101185,Bidadi Railway Station
984,13.09772993,77.58427961,Sharavathi Hotel
985,13.09352382,77.58239957,Chikka Bommasandra Cross
986,12.79714567,77.38485095,Bidadi
987,13.09932728,77.57713716,Mother Dairy Cross Yelahanka
988,12.79979021,77.39081297,Bidadi Railway Station
989,12.80240673,77.39718016,Byramangala Cross (Towards Kengeri)
990,13.09762122,77.56306981,Thirumala Dhaba
991,12.81206409,77.40381404,Billa Kempanahalli Gate
992,13.09217783,77.55940988,Bettahalli Layout
993,12.82897385,77.41209961,Veeranjaneya Temple
995,13.08948614,77.55634205,Chikka Bettahalli
996,12.84383549,77.42133342,Sheshagirihalli
997,13.08595259,77.55566843,Jally Machine
998,13.01055573,77.52501786,Laggere New Bus Stand
999,12.84009119,77.58066028,Maruthi Badavane
1000,12.8362129,77.57657653,Bilavaradahalli
1001,12.83610052,77.57672699,Bilavaradahalli
1002,12.83581649,77.57235382,Muneshwara Temple
1003,12.83575393,77.57209618,Muneshwara Temple
1004,12.82796489,77.56283511,Shanubhoganahalli 1st Cross
1005,12.827866,77.56267357,Shanubhoganahalli 1st Cross
1006,12.85054969,77.42416577,Dalai Lama College
1007,12.85529621,77.42667714,Hejjala Cross
1008,12.85820679,77.42897693,Kanminake Colony
1009,12.86326236,77.43363464,Kanminake
1010,12.87216822,77.43929984,Pepsi Gate
1011,12.87846014,77.44534373,Kumbalagodu
1012,12.8863918,77.45055905,Ramohalli Cross
1013,12.89246672,77.45750617,Anchepalya
1014,13.08593159,77.55541831,Jally Machine
1015,13.08131354,77.5482165,MS Palya
1016,13.08827709,77.54665024,Sambhram College
1017,13.09058918,77.53884419,Kanshiram Nagara
1018,13.09203718,77.53399934,Lakshmipura Cross
1019,13.1012183,77.53079248,Medi Agrahara Cross
1020,13.10972414,77.5280421,Choudappa Layout
1021,12.82667738,77.56151716,Shanubhoganahalli Bannerughatta 
1022,12.88765558,77.44423664,Gerupalya
1023,12.8268183,77.56151201,Shanubhoganahalli Bannerughatta 
1024,12.8892389,77.43763124,Subbarayappanapalya Cross
1025,12.81964007,77.55626548,Kencharayana Doddy
1026,12.89473311,77.43679252,Bheemanakuppe Cross
1027,12.81975033,77.55614589,Kencharayana Doddy
1028,12.90299266,77.43017423,Vinayaka Nagara
1029,12.81582161,77.55230659,Byatarayana Doddy
1030,12.81593413,77.55218979,Byatarayana Doddy
1031,12.90705812,77.41906459,Ramohalli
1032,12.90734066,77.40334649,Kethohalli
1033,12.90996109,77.39543529,Dodda Aladamara
1035,12.80589129,77.54394061,Byalamarana Doddy
1036,12.80367756,77.5436213,Byatarayana Doddy Cross (Towards Gulukamale)
1037,12.91035354,77.38608086,Chunchanakuppe
1038,12.80375089,77.54358349,Byatarayana Doddy Cross (Towards Byatarayana Doddy)
1039,12.91007101,77.37334049,Channappa Circle
1040,12.91021212,77.373355,Channappa Circle
1041,12.7978162,77.5287127,Cadabams
1042,12.79778847,77.52855235,Cadabams
1043,12.91040897,77.38629531,Chunchanakuppe
1044,12.9100324,77.39541426,Dodda Aladamara
1045,12.79782689,77.52103581,Vasudevapura
1046,12.90728658,77.4033867,Kethohalli
1047,12.90699945,77.4190616,Ramohalli
1050,12.90292459,77.43013768,Vinayaka Nagara
1051,12.89470293,77.43674591,Bheemanakuppe Cross
1052,12.80041329,77.508416,Kaggalipura
1053,12.88928148,77.43767551,Subbarayappanapalya Cross
1054,12.88786406,77.44415578,Gerupalya
1055,12.79407618,77.50538648,Pattareddypalya
1056,13.1376459,77.4944856,Ivarukandapura
1057,12.79017483,77.50447692,Gandhi Nagara
1058,13.14293478,77.50229501,Muthkur Cross Shivakote
1059,12.78262357,77.49975617,APS College
1060,13.13393205,77.51471277,Shivakote
1061,12.782158,77.49908999,KEB Office Somanahalli
1062,12.77407599,77.4922149,Nelagulli Cross
1063,12.76111003,77.48655825,Nettigere Cross
1064,12.75418862,77.48464042,Bolare
1065,12.74892622,77.48634511,Ravagodlu Gate
1066,12.74145471,77.48830649,Gantakana Doddy Cross
1067,12.73477618,77.48805436,Yadamadu Kanakapura Road
1068,12.72777531,77.48707333,Kaggalahalli
1069,12.71713806,77.48241873,Kanyakumari 
1070,12.71307886,77.48146834,New Gabbadi
1071,12.70254544,77.4808046,Kembbepalya
1072,12.67995594,77.46957328,Harohalli (Towards Kanakapura)
1075,12.70302046,77.48085421,Kembbepalya
1076,12.71374932,77.48158892,New Gabbadi
1077,12.71772543,77.48231888,Kanyakumari
1078,12.7277173,77.48691479,Kaggalahalli
1079,12.73588838,77.4880961,Yadamadu Kanakapura Road
1080,12.74115093,77.48815018,Gantakana Doddy Cross
1081,12.74891861,77.48640927,Ravagodlu Gate
1082,12.75418302,77.48455326,Bolare Gate
1083,12.76108281,77.48661929,Nettigere Cross
1084,12.76461303,77.48748606,Hosa Doddy Gate
1085,12.68712339,77.47483114,Petrol Bunk
1087,12.78281196,77.499769,APS College
1088,12.79008804,77.50449867,Gandhi Nagara
1089,12.79428263,77.50535072,Pattareddypalya
1090,12.80034992,77.50847579,Kaggalipura
1091,12.80671241,77.51064876,Santekatte 
1092,12.80652645,77.51056765,Santekatte
1093,12.81106748,77.51163626,Saluhunase
1094,12.81101083,77.51155632,Saluhunase
1095,12.81319742,77.51199119,Udayapura
1096,12.82036323,77.51426973,Udipalya
1097,12.82465928,77.51348359,Dayananda Sagar Vidya Samste
1098,12.82497208,77.51380249,Dayananda Sagar Vidya Samste
1099,12.83051916,77.51298521,SaaluDoddy
1100,12.83047215,77.51299127,SaaluDoddy
1101,12.83310583,77.513556,Lakshmipura
1102,12.83335109,77.51373453,Lakshmipura
1103,12.83709487,77.51603673,Shanimahathma Temple
1105,12.83717491,77.51611584,Shanimahathma Temple
1106,12.84238693,77.51774812,Kuppareddy Kere
1107,12.84253588,77.51771027,Kuppareddy Kere
1108,12.85358192,77.52335468,Chinnayyanapalya Silk Farm
1109,12.85365804,77.52334971,Chinnayyanapalya Silk Farm
1110,12.85757808,77.5273017,NICE Road Kanakapura Road Junction
1111,12.85678315,77.52669855,NICE Road
1112,12.86472099,77.53313647,Vajramuneshwara Gate
1113,12.85993253,77.52895553,Jyothi Farm
1114,12.84439347,77.58359801,Weavers Colony
1115,13.03180006,77.63602616,Hennur Cross (Towards Hennur Bande)
1116,13.03666765,77.64048635,Hennur Bande
1117,13.04329195,77.64225235,Janaki Rama Layout
1118,13.05278508,77.64598519,K Narayanapura Cross
1119,13.0650008,77.65174568,Gubbi Cross (Towards Byrathi Bande)
1120,13.07804286,77.65338808,Byrathi Bande
1121,13.0930913,77.65430939,Kannuru
1122,13.10246585,77.62879247,Ittige Factory
1123,13.10347178,77.61613957,Kogilu
1124,13.10436032,77.60626616,Maruthi Nagara
1125,13.10388385,77.60025157,Kogilu Cross
1126,12.8299043,77.58778,AMC College
1127,12.82539808,77.5862735,Sampangiram Nagara
1128,13.10445265,77.60633466,Maruthi Nagara
1129,12.82529341,77.58610767,Sampangiram Nagara
1130,13.10459616,77.61049737,Sapthagiri Layout
1131,13.10446167,77.61067215,Sapthagiri Layout
1132,12.81536055,77.58296874,Vijaya Bank Bannerughatta 
1133,12.81505473,77.58291292,Vijaya Bank Bannerughatta 
1134,13.10364125,77.61598669,Kogilu
1135,12.81392385,77.58103635,Bannerughatta Circle (Towards Gottigere)
1136,12.81326002,77.58136168,Bannerughatta Circle (Towards Jigani)
1137,13.10255814,77.62946387,Ittige Factory
1138,12.80809812,77.59071138,Junglepalya Gate
1139,12.80805582,77.59055946,Junglepalya Gate
1140,13.09922881,77.64223097,Bellahalli
1142,12.79788812,77.60392286,Begihalli
1143,12.79640187,77.61596446,Koppa Gate
1144,12.79642313,77.61580967,Koppa Gate
1145,13.10621691,77.66088732,Hosuru Bande
1146,12.79163849,77.62377837,Harapanahalli (Towards Jigani Double Road)
1148,13.11337443,77.6877906,Chokkanahalli (Towards Marenahalli)
1149,13.10782104,77.66565859,Hamsa Farm
1150,12.78869423,77.62940555,Jigani Double Road
1151,13.12251721,77.66823062,Chakkalatti
1152,12.78851783,77.62966625,Jigani Double Road
1153,12.90695298,77.62849415,Bommanahalli (Towards Madivala)
1154,12.97690168,77.59929239,MG Statue
1155,12.90248167,77.62745333,Deccan
1156,13.13342221,77.66669001,Bagalur Santhe
1157,12.90105428,77.6271286,Oxford College
1158,13.12239569,77.66832006,Chakkalatti
1159,12.89852563,77.62651015,International School of Management
1160,12.8970364,77.62631603,Hongasandra
1161,13.10752013,77.6657847,Sonnappanahalli
1162,12.89325102,77.62584635,APR Kalyana Mantapa
1163,13.1058611,77.6644251,Tavakkal Hospital
1164,12.88895355,77.62572759,St Francis School
1165,12.88891906,77.62562409,St Francis School
1166,12.88517242,77.62516617,Canara Bank Begur
1167,12.88197642,77.62478111,Vishwapriya Layout
1168,12.8799589,77.62459648,PK Kalyana Mantapa Aralimara 
1169,12.8762036,77.62609678,Beguru Church
1170,12.87283959,77.62464607,Hanuman Temple Beguru
1171,12.87350864,77.62516647,Beguru (Towards Bommanahalli)
1172,12.86647708,77.61604099,Yelenahalli
1173,13.1017273,77.65827456,Kadasonnappanahalli Gate
1175,13.08141755,77.65323192,Nagenahalli
1176,12.804402,77.62646531,Koppa
1177,13.07782161,77.65341241,Byrathi Bande
1178,12.80448777,77.62653624,Koppa
1179,12.81294396,77.62755721,Dharmapura (Towards Beguru)
1180,12.81389831,77.63751972,Hulimangala Cross (Towards Nanjapura Road)
1181,13.06935696,77.65926935,Visthar
1182,12.82577846,77.62297234,Bingipura Cross
1183,12.82586954,77.62304443,Bingipura Cross
1184,13.06173212,77.64891481,Kothanuru 
1185,12.8280235,77.6233089,Hullahalli Cross
1186,12.82760783,77.62324705,Hullahalli Cross
1187,12.84159785,77.63184286,Bettadasanapura
1188,12.84153363,77.63193157,Bettadasanapura
1189,13.05698661,77.64836274,Byrathi Cross
1190,13.05719034,77.64832095,Byrathi Cross
1191,12.9293884,77.61586978,St Johns Hospital
1194,13.05268852,77.64613033,K Narayanapura Cross
1196,12.8362454,77.62507427,Jally Machine
1197,13.04839588,77.64544539,Geddalahalli (Towards Hennur)
1198,12.92911207,77.62153537,Water Tank Koramangala
1199,12.85876167,77.61194,Nobel Residency 
1200,12.84244538,77.61843502,Jn of Mylasandra Road
1201,13.04320116,77.64253526,Janaki Rama Layout
1202,12.84233493,77.61845329,Jn of Mylasandra Road
1203,12.93084197,77.62215162,BDA Complex Koramangala
1204,12.87288996,77.62475792,Hanuman Temple Beguru
1205,13.03672263,77.64080824,Hennur Bande Sai Baba Temple
1206,12.84304661,77.61482177,Vaddarapalya
1207,12.87618999,77.62614097,Beguru Church
1208,12.84309031,77.61480756,Vaddarapalya
1209,13.03149404,77.63586786,Hennur Cross (Towards Lingarajapura)
1211,12.8778383,77.62532524,Beguru Lake
1212,12.84583865,77.60941051,St Marys School
1213,12.879963,77.62465594,PK Kalyana Mantapa Aralimara 
1214,12.84593946,77.60942374,St Marys School
1215,12.93501928,77.62417448,Canara Bank Koramangala 
1216,12.88199448,77.6248796,Vishwapriya Layout
1217,12.8850358,77.62524533,Canara Bank Begur
1218,12.93796099,77.62779667,Sony World 80ft Road  Koramangala
1219,12.84445188,77.59813669,Hommadevanahalli
1220,12.84449307,77.59813841,Hommadevanahalli
1221,12.89148777,77.62600453,Galaxy Paradise
1222,12.93744886,77.62737235,Sony World 80ft Road  Koramangala
1223,12.89152306,77.62589255,Galaxy Paradise
1224,12.89326182,77.62596209,APR Kalyana Mantapa
1225,12.89713506,77.62619229,Hongasandra
1226,12.8436846,77.5943702,Basavanapura (Towards Hommadevanahalli)
1227,12.84370873,77.59442663,Basavanapura (Towards Basavanapura Gate)
1228,12.89849167,77.62663833,International School of Management
1229,12.93842147,77.63252469,Srinivagilu Ejipura 
1230,12.90076374,77.62723541,Oxford College
1231,12.9023465,77.62732961,Deccan
1232,12.95528894,77.64129239,Jn of New Bridge
1233,12.95696427,77.64140253,Domlur Flyover (Towards Dhupanahalli)
1234,12.96376995,77.64145074,Dhoopanahalli
1235,12.90350396,77.62729936,Nayanappanahalli Cross
1236,12.9666309,77.64130675,Indiranagara 100ft Road
1241,12.97857166,77.64076865,Police Station Indiranagara
1242,12.89836484,77.61809156,Kodichikkanahalli
1246,12.89225871,77.61163581,Vijaya Bank Layout Petrol Bunk
1247,12.88898572,77.61555432,Devarachikkanahalli
1251,12.96711377,77.64149626,Indiranagara 100ft Road
1252,12.96322519,77.6416524,Dhoopanahalli
1256,12.95792006,77.64153678,Domlur Flyover (Towards Koramangala)
1257,12.84940438,77.58189185,Pillaganahalli
1259,12.8494289,77.58200999,Pillaganahalli
1260,12.95451442,77.6414326,Jn of New Bridge
1263,12.8552352,77.58038416,Kembathalli Cross
1265,12.8920591,77.6118257,Vijaya Bank Layout Petrol Bunk
1268,12.86196984,77.56378981,Anjanapura
1270,12.9386204,77.63313201,Srinivagilu Ejipura 
1271,12.86180431,77.56091309,Anjanapura Cross
1272,12.89833125,77.61793731,Kodichikkanahalli
1273,12.85748197,77.55652787,Vajragiri Estate
1275,12.85778871,77.55663233,Vajragiri Estate
1277,12.86166018,77.56056922,Anjanapura Cross
1279,12.93673009,77.62652607,Sony World 80ft Road  Koramangala
1280,12.86201124,77.56383263,Anjanapura
1281,12.93422564,77.62384989,Canara Bank Koramangala 
1282,12.90356123,77.62720465,Nayanappanahalli Cross
1283,12.86738362,77.56554335,Nandi Garden Kothanur
1284,12.93123908,77.62250884,BDA Complex Koramangala 
1285,12.867471,77.5656985,Nandi Garden Kothanur
1286,12.87283114,77.566636,Avalahalli (Towards Anjanapura)
1287,12.87289023,77.56656024,Avalahalli (Towards Konanakunte)
1288,12.85942696,77.56984897,KRB Indian Oil Petrol Bunk Kembathalli 
1289,12.85928285,77.5699582,KRB Indian Oil Petrol Bunk Kembathalli 
1292,12.8551349,77.58042191,Kembathalli Cross
1293,12.85559756,77.58514007,Sri Adishakthi Temple
1294,12.85514139,77.58484149,Sri Adishakthi Temple
1305,12.8435867,77.64418914,Thogur Cross
1307,12.84155252,77.64799384,Neeladri Nagar 
1309,12.84055838,77.65163795,Concord Apartment Electronic City
1310,12.84057459,77.6517866,Concord Apartment Electronic City
1311,12.83902423,77.65892537,Wipro Gate Shikaripalya Cross
1312,12.83894928,77.6589777,Wipro Gate Shikaripalya Cross
1313,12.94719176,77.56776613,Ramakrishna Ashrama
1314,12.94340242,77.56601632,Hanumanthanagara Ward Office 
1315,12.94169261,77.56199671,Subramanya Swamy Temple
1316,12.94157107,77.55956637,Nirmala Store
1317,12.94176426,77.55556899,Apex Bank
1318,12.83604087,77.67918092,Huskur Gate
1319,12.83723408,77.6789024,Huskur Gate
1321,12.8423539,77.68709207,Singena Agrahara Cross Fruits Market 
1322,13.01592897,77.54368853,Shankara Nagara
1323,12.81170836,77.69478554,BTL College
1324,13.01587832,77.54377104,Shankara Nagara
1325,12.84720014,77.69068036,Doddamma Temple (Towards Depot-38)
1326,12.84747281,77.69090261,Doddamma Temple (Towards Huskur)
1329,13.01189027,77.54402134,Mahalakshmi Layout
1330,12.848943,77.69249787,Depot-38 Gate
1331,12.85481441,77.69989621,Sumuka Layout
1332,12.85472788,77.70017545,Sumuka Layout
1333,12.92521044,77.55039214,Kathriguppe
1334,12.92386077,77.55383934,Depot-13 Gate
1335,12.86143473,77.70515635,Huskur (Towards Chikkanagamangala Gate)
1336,12.92376204,77.55376939,Depot-13 Gate
1337,13.00824258,77.54509877,Srinavasa Temple
1339,12.86146706,77.70524417,Huskur (Towards Gattahalli)
1341,12.93032903,77.54355905,Hoskerehalli Cross
1342,12.85453596,77.71222704,Chinthala Madivala Cross
1343,13.00774774,77.54796429,Mahalakshmi Layout Entrance
1344,12.85458655,77.7123338,Chinthala Madivala Cross
1345,12.93294772,77.54544472,Hoskerehalli Cross 
1346,13.00832743,77.54500146,Srinivasa Temple
1347,12.93707814,77.54878681,Seetha Circle
1348,12.85321359,77.71868407,Kaggalipura
1349,12.85315113,77.7185993,Kaggalipura
1350,12.9386396,77.55310068,Bank Colony
1351,12.93810593,77.55662492,Srinivasa Nagara
1353,12.94344452,77.5584915,Maruthi Circle
1355,13.00594545,77.54112381,Geleyara Balaga Extension Rajajinagara
1356,12.94354885,77.56167645,Subramanya Swamy Temple
1357,12.86113381,77.73242582,Head Start School Gate
1358,12.9440829,77.56423059,Ganesha Bhavan
1359,12.84306239,77.7275245,Muttanalluru Cross
1361,12.8555511,77.73110816,Kaggalipura Cross
1362,12.85587814,77.73116719,Kaggalipura Cross
1364,12.86519638,77.73256487,Harohalli Gate
1365,12.87093116,77.73385231,Kammasandra Gate
1366,13.01141179,77.53589221,Nandini Layout Bus Stand
1367,12.88743104,77.73836795,Muttanalluru Cross
1368,12.88739997,77.73841943,Muttanalluru Cross
1370,12.88174936,77.75709375,Thigalara Chowdenahalli Cross
1371,13.00990017,77.53277204,Jai Maruthi Nagara Circle 
1372,12.87938614,77.76160178,Chambenahalli
1373,12.94323054,77.54261674,Avalahalli BDA Park Girinagara
1375,12.87239399,77.76639325,Yamare
1376,12.87244068,77.76635732,Yamare
1377,12.86774119,77.76708617,Crystal Apartment Sarjapura Road 
1378,12.86212753,77.77185353,Sompura Gate
1380,12.86210878,77.77200715,Somapura Gate
1381,13.01177418,77.52864386,NLO Outer Ring Road
1382,12.8603581,77.79887651,Thindlu Gate
1383,12.86044319,77.79885042,Thindlu Gate
1384,13.0146618,77.53064791,Nandhini Layout
1385,12.87217202,77.80850265,Mahal Chowdadenahalli
1386,12.87219476,77.80875731,Mahal Chowdadenahalli
1387,13.01816644,77.53157623,Rajkumar Punya Bhoomi
1388,12.88486446,77.81577562,Jn of Pandithana Agrahara
1389,12.88504313,77.81591891,Jn of Pandithana Agrahara
1390,13.02162146,77.53246583,Kanteerava Studio
1391,13.01859398,77.53189635,Rajkumar Punya Bhoomi
1393,13.01158719,77.52871834,Nandhini Layout Outer Ring Road
1394,13.00759076,77.53118291,Jai Maruthi Nagara
1395,13.0091504,77.53824422,Saraswathipuram
1396,13.01203939,77.5439363,Mahalakshmi Layout
1397,12.97035831,77.54620364,Pipeline Park
1398,12.96775494,77.54513696,Pipeline Binni Layout 
1400,12.95780009,77.53384684,Attiguppe (Towards Vijayanagara)
1401,12.84525945,77.78296332,Garments Factory Borugunte
1403,12.96018726,77.52955071,Chandra Public School
1406,12.95771537,77.52867586,Ganesha Temple Chandra Layout 
1407,12.82754787,77.78630056,Thyavakanahalli Gate
1408,12.95827325,77.52634499,Chandra Layout Cirlce
1410,12.82327025,77.78606807,S Medahalli
1411,12.95845489,77.51901091,Nagarabhavi Circle
1412,12.81530868,77.78523628,Silk Farm
1413,12.81136001,77.7847516,Sriram Properties
1414,12.81060541,77.78446598,Sriram Properties
1416,12.95698702,77.51580329,Nagarabhavi Village
1417,12.79977059,77.78252374,Anjaneya Temple Bidarakuppe
1418,12.96095504,77.50975549,NGEF Layout Nagarabhavi
1419,12.92896772,77.61540068,St Johns Hospital
1420,12.95930528,77.51678256,Manasa Nagara
1422,12.79081314,77.77617381,Indlubele
1425,12.96007191,77.51980152,Nagarabhavi Circle
1426,12.9194136,77.61571799,Jai Bheema Nagara
1427,12.96180017,77.52173588,Maruthi Nagara
1428,12.91967484,77.61038853,16th Main Hopcoms BTM Layout 
1429,12.96532487,77.52325586,Byraveshwaranagara
1430,12.91663359,77.60891085,16th Main BTM Layout 
1431,12.7743132,77.77134776,Ramohalli
1432,12.91714444,77.61023225,Udupi Garden Petrol Bunk
1433,12.96741272,77.5238405,Kalyananagara
1434,12.77403444,77.77112092,Ramohalli
1435,12.91965653,77.61025422,17th Main Hopcoms BTM Layout 
1436,12.97059902,77.5248729,Moodalapalya
1437,12.92206667,77.61055833,Tavarekere Aladamara
1439,12.92496546,77.60884644,Tavarekere Mori
1440,12.97348321,77.53019538,Saraswathi Nagara
1441,12.97561447,77.53118474,Prashanth Nagara
1442,12.92887957,77.60935029,Chikka Adugodi
1443,12.93115931,77.60986465,Sudduguntepalya
1444,12.768528,77.77015559,Jn of Anekal Road
1447,12.75036545,77.74774074,Mayasandra Gate
1448,12.7504885,77.74784847,Mayasandra Gate
1449,12.92903833,77.60946833,Chikka Adugodi
1450,12.73535263,77.73079509,Thattanalli Gate
1451,12.92501923,77.60887461,Tavarekere Mori
1453,12.92221,77.61053833,Tavarekere Aladamara
1454,12.73083763,77.72667789,Besthamanahalli
1455,12.73086573,77.72665586,Besthamanahalli
1456,12.91966477,77.61293955,Gangothri Circle
1457,12.72448829,77.72088057,Karpura Gate
1459,12.74600868,77.68907017,Dodda Hagade
1466,12.71444728,77.70590552,Dinnur Sudhamanagara
1467,12.9756415,77.53124958,Prashanth Nagara
1468,12.97382989,77.53037358,Saraswathi Nagara
1469,12.71738993,77.70035418,Anjaneya Temple Anekal
1470,12.72584481,77.70444967,Kavala Hosahalli
1471,12.97142151,77.52686151,Priyadarshini Layout
1472,12.72427221,77.70374245,Janatha Colony
1473,12.72424082,77.70381218,Janatha Colony
1474,12.78660567,77.70331087,Iggluru
1475,12.97027128,77.5248469,Moodalapalya
1476,12.73152624,77.70631226,Chikka Hagade Gate
1478,12.96738996,77.52377629,Kalyananagara
1479,12.74667616,77.70783595,Avadadenahalli Gate
1480,12.96518406,77.52336152,Byraveshwaranagara
1481,12.7357569,77.70776359,Karpura Gate
1482,12.7520764,77.70656738,Byagadadenahalli Gate
1483,12.96172963,77.52182067,Maruthi Nagara
1484,12.95844606,77.66603425,HAL Main Gate (Towards Marathahalli Bridge)
1485,12.75925997,77.70366254,RK Farm
1486,12.95967782,77.51994835,Nagarabhavi Circle
1487,12.80179478,77.71165823,Hale Chandapura
1488,12.95838008,77.52644836,Chandra Layout Circle
1489,12.79078536,77.70565228,Surya Nagara
1491,12.79076903,77.70572073,Surya Nagara
1492,12.78675235,77.70327031,Iggluru
1493,12.96265764,77.62757386,Commando Hospital
1494,12.77901676,77.701916,Ramakrishnapura Gate
1495,12.76953128,77.70146367,Marasur Gate
1496,12.76994975,77.70138498,Marsuru Gate
1497,12.75236331,77.70660202,Byagadadenahalli Gate
1498,12.95832401,77.52881046,Ganesha Temple Chandra Layout 
1500,12.96008551,77.531285,Income Tax Layout
1501,12.95790131,77.53402576,Attiguppe (Towards Deepanjalinagara)
1502,12.73568572,77.70785946,Karpura Gate
1503,12.73134522,77.70641344,Chikka Hagade Gate
1504,12.75907527,77.70364265,RK Farm
1505,12.72590282,77.704241,Kavala Hosahalli
1506,12.71732972,77.70034576,Anjaneya Temple Anekal
1507,12.71615032,77.69515284,Shanimahathma Temple
1508,12.72319578,77.6813877,Gowrenahalli
1509,12.72317542,77.68117933,Gowrenahalli
1511,12.73193874,77.67077852,Indluvadi Cross
1512,12.73207256,77.67077426,Indluvadi Cross
1513,12.73642835,77.66900452,Suragajakkanahalli
1514,12.74772752,77.66034633,Kumbaranahalli
1515,12.74790429,77.66056518,Kumbaranahalli
1516,12.76443769,77.65402203,Haragadde
1517,12.7644556,77.65395496,Haragadde
1518,12.77251968,77.64804127,Madapatna
1519,12.77251263,77.64819508,Madapatna
1520,12.77691114,77.64478074,KEB
1521,12.77697185,77.64492623,KEB
1522,13.04772179,77.7393822,Cheemasandra
1523,13.04648593,77.75046047,Budigere Cross (Towards Hoskote)
1525,13.05635506,77.76705935,Hoskote Kodi
1526,13.07216741,77.78739762,Hoskote KEB Circle (Towards Nanda Shree)
1527,13.08845718,77.78072312,Kumbalahalli Gate
1528,13.1020439,77.77783688,Halappanahalli
1529,13.10691789,77.77614282,Shankanipura Gate
1530,13.11060753,77.77422851,Lakkondahalli Temple
1531,13.11448086,77.77358943,Venkatapura Gate Lakondalli
1532,13.11703005,77.77334301,Lakkondahalli Gate
1533,13.12415958,77.77330528,Thimmasandra Gate
1534,12.96565337,77.60294226,Richmond Circle
1536,13.12848701,77.77376363,Sun Valley Public School Thimmsandra 
1537,13.13536667,77.77493503,Hasigaala
1538,13.14987635,77.7809364,Kammasandra
1539,13.15783529,77.79074339,Yanagunte
1540,12.92155964,77.57098118,Monotype Corporation
1541,13.10652852,77.60158772,Kendriya Vihara
1542,12.9197969,77.56921479,Kaveri Nagara
1543,13.16289435,77.79271959,Sadhapanalli Gate
1544,13.16979762,77.79381003,Attibele Sulibele
1545,13.18487384,77.79804192,Devanahalli Cross Sulibele
1546,13.18498626,77.79793827,Devanahalli Cross Sulibele
1547,13.14526659,77.61740028,Hunasamaranahalli
1548,12.92738801,77.56788811,Nagalakshmi Kalyana Mantapa
1549,13.15207031,77.62013141,SMVIT Cross
1550,13.15710267,77.62336153,Bettahalasuru Cross (Towards Devanahalli)
1551,13.1977421,77.77703119,Balepura Gate
1552,13.16121606,77.62647661,Vidyanagara Cross Chikkajala
1553,13.1724984,77.63360089,Chikkajala
1554,12.92717526,77.56175707,KIMS College
1555,13.17729587,77.65328389,Doddajala
1556,12.92272755,77.56027238,Devegowda Petrol Bunk (Towards Monotype)
1557,13.18859703,77.64422122,Thabarahalli
1558,12.92481917,77.55425426,Depot-13 Kathriguppe
1559,13.19074621,77.6457786,Sadahalli Gate
1560,12.92141017,77.56026508,Devegowda Petrol Bunk (Towards Padmanabhanagara)
1561,13.20728433,77.76295141,Chikkahosahalli Gate
1562,12.92831264,77.54575018,Janatha Bazaar Banashankari 
1563,13.19918532,77.65806901,Airport Trumpet
1564,13.21274452,77.75480354,Channahalli Gate
1565,12.93262454,77.5452921,Hoskerehalli Cross
1566,13.21950219,77.7524814,Haraluru Gate (Towards Devanahalli)
1567,12.93774272,77.54968336,Seetha Circle
1568,13.22069184,77.74822817,Thellahalli Gate
1569,12.93856255,77.55304251,Bank Colony
1570,12.93855027,77.5541435,Srinivasa Nagara Bank Colony 
1571,13.22268882,77.74080664,Air Lines Dhaba Gate
1572,12.94181404,77.55590318,Apex Bank
1573,13.20707692,77.66829142,Kannamangala Gate
1574,12.94426486,77.55471022,Srinagara Bus Station
1575,13.22433676,77.73844175,Budihal Gate (Towards Devanahalli)
1576,13.23102182,77.73035097,Sowthegowdanahalli
1577,13.2335237,77.72704031,Rayasandra Gate
1578,13.21223046,77.67320557,Bachahalli Gate
1581,13.22145993,77.68229792,Palya Gate
1584,13.24458907,77.71324514,Giriyamma Circle
1585,12.94735343,77.56631854,Kohinoor Ground
1586,13.22161652,77.66990204,Kannamangalapalya 
1587,13.23051616,77.6646055,Kempalingapura
1589,13.23900513,77.6569754,Uganawadi
1590,13.26466305,77.65540747,Solur
1591,13.26996105,77.6562822,Solur Gate
1592,13.24569114,77.71323168,Devanahalli New Bus Station
1593,13.27214061,77.64826098,Vishwanathapura
1594,13.27196368,77.64911254,Vishwanathapura
1595,13.24491415,77.71303431,Giriyamma Circle
1596,13.26988904,77.6562376,Solur Gate
1597,13.26459331,77.6557434,Solur
1598,13.21880652,77.72577247,Rayasandra
1600,13.24692975,77.64812083,Peddanahalli
1601,13.21286715,77.73608634,Agalakote
1602,13.23921163,77.65689781,Uganawadi
1606,13.19928094,77.73920441,Bettakote
1608,13.18968967,77.74332579,Baladimmanahalli
1609,13.22648617,77.68711523,Dhaba Gate
1610,13.23046206,77.69101935,Chikka Sanne Gate
1611,13.19930925,77.73914242,Bettakote
1612,13.23893665,77.6995316,Hiranandani Villas
1613,13.21285389,77.7360863,Agalakote
1614,13.21881101,77.72574267,Rayasandra
1615,13.23508433,77.71297704,Anjaneya Temple Devanahalli
1616,13.26783976,77.71941637,Rani Circle
1617,13.28289827,77.72276812,Sai Baba Temple Attibele
1618,13.29632807,77.72547817,Avathi
1620,13.28290291,77.72301235,Sai Baba Temple Attibele
1621,13.26728253,77.71979506,Rani Circle
1622,13.25686196,77.71722554,Vijayapura Cross
1623,13.25680862,77.71736581,Vijayapura Cross
1624,13.24826964,77.71545133,Devanahalli Old Bus Stand
1625,13.24826316,77.71560821,Devanahalli Old Bus Stand
1626,13.24554077,77.71296344,Devanahalli New Bus Station
1627,13.24340703,77.70840618,Devanahalli Talluk Office
1629,12.95609833,77.69380013,Marathahalli
1630,13.23408844,77.69474854,Sanna Amanikere
1631,13.23025238,77.6910374,Chikka Sanne Gate
1632,12.96672149,77.60945756,Life Style
1633,13.22635152,77.68726496,Dhaba Gate
1634,13.22133877,77.68246229,Palya Gate
1635,13.23332407,77.72736439,Rayasandra Gate
1636,13.23107732,77.73036602,Sowthegowdanahalli
1637,13.20687791,77.66851611,Kannamangala Gate
1638,13.22427503,77.7386248,Budihal Gate (Towards Air Lines Dabha Gate)
1639,13.19875076,77.65773758,Airport Trumpet
1640,13.22272186,77.740983,Air Lines Dhaba Gate
1641,13.22064868,77.74815507,Thellahalli Gate
1642,13.19054261,77.64606563,Sadahalli Gate
1643,13.18815426,77.64433874,Thabarahalli
1644,13.21976924,77.75240617,Haraluru Gate (Towards Channenahalli Gate)
1645,13.17280999,77.63318024,Chikkajala
1646,13.21276924,77.7549427,Channahalli Gate
1647,13.16834281,77.63114364,Kadugenahalli Gate
1648,13.20731763,77.76300544,Chikkahosahalli Gate
1649,13.16097736,77.62724302,Vidyanagara Cross Chikkajala
1650,13.15659175,77.62354959,Bettahalasuru Cross (Towards Yalahanka)
1651,13.20226484,77.77151046,Nallur Cross
1652,13.15192231,77.62057862,SMVIT Cross
1654,13.13749326,77.61759791,Bharathi Nagara
1655,13.18473724,77.79791718,Devanahalli Cross Sulibele
1656,13.12186064,77.61135255,Bagalur Cross
1657,13.16983801,77.79390456,Attibele Sulibele
1658,13.16298667,77.79281197,Sadhapanalli Gate
1659,13.15763475,77.79067606,Yanagunte
1660,13.14989959,77.78108632,Kammasandra
1661,13.13532604,77.77506246,Hasigaala
1662,13.12837918,77.77383801,Sun Valley Public School Thimmsandra 
1663,13.12415607,77.77332226,Thimmasandra Gate
1664,13.11715317,77.77342329,Lakkondahalli Gate
1665,13.11458483,77.77363527,Venkatapura Gate Lakkondahalli
1666,13.11068245,77.77426171,Lakkondahalli Temple
1667,13.10693949,77.77614276,Shankanipura Gate
1668,13.10214641,77.77785864,Halappanahalli
1669,13.08852584,77.78076438,Kumbalahalli Gate
1672,13.05316783,77.76198643,Katamanallur Gate
1673,13.04585768,77.75026017,Budigere Cross ( Towards Kempegowda Bus Station)
1678,12.92619288,77.56989682,Banashankari Post Office
1679,12.91668769,77.57303509,Banashankari Bus Station (Towards Kadirenahalli)
1680,12.94193382,77.55293653,Nagendra Block
1681,12.9420519,77.55059518,Banashankari 1st Stage Muneshwara Block KEB
1682,12.94071693,77.54500558,Girinagara 2nd Stage
1683,12.94494133,77.54730354,Muneshwara Block 
1684,12.94498639,77.54881078,Kalidasa Layout
1685,12.94226689,77.54858228,Muneshwara Block
1687,12.9483908,77.5433476,Timber Yard Layout
1688,13.02159685,77.69998079,TC Palya
1689,13.02422515,77.69285292,Anandapura
1690,13.02067996,77.68353782,Akshayanagara
1691,13.02128015,77.67880077,Kalkere Cross
1692,12.93345802,77.55777153,ITI Layout
1693,13.0335498,77.67462332,Kalkere
1694,13.03897744,77.67742008,Pooja Garden
1695,12.92831834,77.55648542,Channammanakere Achukattu
1696,13.04015844,77.67946831,K Channasandra
1697,13.05169509,77.6911008,Rampura
1698,12.95180447,77.56746709,Bengaluru High School
1699,13.05552872,77.70571225,Aduru (Towards Avlahalli)
1701,12.95724213,77.57302492,Makkala Koota
1702,13.05690943,77.71508908,Bidarahalli Cross
1704,13.06024039,77.71618689,Bidarahalli
1705,12.94944811,77.56773941,Ramakrishna Ashrama
1706,13.05014032,77.71999897,East Point College
1707,12.95778027,77.57389823,Makkala Koota
1708,13.0458343,77.72253882,Herandahalli	
1709,13.03738264,77.71062919,Kittaganuru
1710,13.03719575,77.69297354,Maragondanahalli
1711,13.0397013,77.7292932,Srirama Layout Avalahalli Road 
1712,13.04567984,77.72280604,Hiranandahalli
1713,13.04982936,77.72001279,East Point College
1714,13.06004516,77.71616749,Bidarahalli
1715,13.06539496,77.716962,Dodda Mori Bidarahalli
1716,13.07163802,77.72080307,Bayyapannahalli
1717,13.07508963,77.7180644,Amogha Layout
1718,13.07856265,77.71635614,Kammasandra
1719,13.0785431,77.69182319,Kada Agrahara
1720,13.08522724,77.68714077,Yarappanahalli
1721,12.95770839,77.61435375,Neelasandra Bus Stand
1722,13.09975883,77.71497601,Marasandra
1723,12.96146909,77.61420642,Austin Town
1724,12.96472362,77.61029923,Philomenas Hospital
1725,13.08535189,77.68715788,Yarappanahalli
1726,12.965529,77.60968832,Philomenas Hospital
1727,13.08096751,77.68270248,Bandebommasandra Cross
1728,13.07672002,77.68090109,Bande Bommasandra 
1730,13.0730607,77.67885232,Anagalipura Gate
1731,13.07092501,77.6740068,Dodda Gubbi
1732,12.96143478,77.61248411,Austin Town Neelasandra
1733,13.07103471,77.67376277,Dodda Gubbi
1734,12.95730573,77.61474412,Neelasandra BDA Complex
1735,13.07663952,77.68071504,Bande Bommasandra 
1736,12.95373387,77.61749497,Neelasandra Rose Garden
1737,13.08092543,77.68290649,Bandebommasandra Cross
1738,13.07860591,77.69169546,Kada Agrahara
1739,12.95769934,77.61456904,Neelasandra Bus Stand
1740,13.08676275,77.71508116,Gundur
1741,12.95722791,77.61477547,Neelasandra BDA Complex
1742,13.07862097,77.71644112,Kammasandra
1743,13.07507262,77.71817603,Amogha Layout
1744,13.07151955,77.72080068,Bayyapannahalli
1745,13.06538011,77.71703839,Dodda Mori Bidarahalli
1746,13.05686782,77.71503058,Bidarahalli Cross
1747,13.05535554,77.70601533,Aduru (Towards Ramapura)
1748,13.05158203,77.691186,Rampura
1749,13.04009499,77.67967035,K Channasandra
1751,13.03888895,77.67756449,Pooja Garden
1753,13.03347118,77.67484369,Kalkere
1754,12.9613877,77.61239652,Austin Town Neelasandra
1755,12.96162379,77.61335987,Austin Town
1756,12.96238716,77.6190769,ASC Centre
1757,13.0212022,77.67885298,Kalkere Cross
1758,12.95646726,77.62114952,Vannarapet
1759,13.02072222,77.68338951,Akshayanagara
1760,12.95446086,77.62287405,Vivek Nagara
1761,13.02409883,77.69270401,Anandapura
1762,12.95139519,77.62200205,Vivek Nagara Police Station Ravi Tent 
1763,12.9467322,77.6288549,Ejipura
1764,13.0216071,77.69986057,TC Palya
1765,12.94673196,77.6287183,Ejipura
1766,12.95147192,77.62204553,Vivek Nagara Police Station Ravi Tent 
1767,12.95415096,77.62297538,Vivek Nagara
1768,12.95663162,77.62102065,Vannarapet
1769,12.96196913,77.61906088,ASC Centre
1770,12.991487,77.64344449,Bayyappanahalli Gate
1771,12.98505347,77.64256824,Bayyapannahalli Cross
1772,12.98518795,77.64245632,Bayyapannahalli Cross
1773,12.99153029,77.64337545,Bayyappanahalli Gate
1774,12.99382529,77.63173897,Jeevanahalli Graveyard
1775,12.99378282,77.63176244,Jeevanahalli Graveyard
1776,12.99498318,77.62808555,Jeevanahalli
1777,12.9950261,77.62849423,Jeevanahalli
1778,12.99434193,77.62909205,Jeevanahalli Cross
1779,12.9942368,77.62893038,Jeevanahalli Cross
1780,12.99382167,77.6266631,Jeevanahalli Water Tank
1781,12.99543105,77.62347768,Pankaj Dairy
1782,12.9962938,77.62153345,Cox Town
1783,12.99556417,77.61664061,Sindhi Colony
1785,12.98850204,77.61746024,Lake Side Hospital
1786,12.98270017,77.61595414,RBANMS PU College
1788,12.97755391,77.60702141,Maniksha Parade Ground
1789,12.97747239,77.60802943,Maniksha Parade Ground
1790,12.97993263,77.60960161,Commercial Street (Towards Deckenson Road)
1791,12.98086682,77.61074018,Dickenson Road
1792,12.98423539,77.61164518,Kamaraja Road
1793,12.99115299,77.61423039,Thomas Bakery
1794,12.99648585,77.6122348,Coles Road
1795,12.9943762,77.6100245,Coles Park (Towards HK Degree College)
1796,12.99346909,77.60989032,Coles Park (Towards Coles Road)
1797,12.99632578,77.61236246,Coles Road
1798,12.99548711,77.61632029,Sindhi Colony
1799,12.99648299,77.62156665,Cox Town
1800,12.99591456,77.62385271,Pankaj Dairy
1801,12.99456241,77.62693996,Jeevanahalli Water Tank
1802,13.11497453,77.57881815,Ananthapura Gate (Towards Doddaballapura)
1803,13.12354441,77.57506941,CRPF (Towards Doddaballapura)
1804,13.12996101,77.5712988,Nagenahalli Gate
1805,13.13527565,77.56907652,Avalahalli (Towards Doddaballapura)
1806,13.14757366,77.56978204,Singanayakanahalli Gate
1807,13.15979105,77.56661545,Honnenahalli
1808,13.19510058,77.56294616,Sri Ramanahalli
1809,13.20446095,77.55892146,Suradenapura Gate
1810,12.95055081,77.55539596,Brundavana Nagara
1811,13.22279619,77.54958119,Marasandra Circle
1812,12.96019221,77.55948522,Sirsi Circle
1813,12.96467391,77.5616989,Binnypet
1814,12.97056963,77.56621192,Binny Mill
1815,13.23076315,77.55015835,Marasandra Govt School
1816,13.23093179,77.55009144,Marasandra Govt School
1817,12.97563929,77.56244027,1st Cross Magadi Road
1818,12.97584555,77.56078154,5th Cross Magadi Road
1819,13.25809058,77.55273914,Bank Circle Bashettyhalli
1820,13.26149501,77.5525194,Bashettihalli
1822,12.99858565,77.55281395,Navarang Theatre
1825,13.27261338,77.5519775,Aparel Park
1826,13.01792884,77.55638747,Yeshwanthapura TTMC
1827,13.28006955,77.55161355,Railway Station Doddaballapura
1828,13.01839849,77.5535841,Govardhan Talkies (Towards Vivekananda College)
1829,13.28753317,77.54387203,Rangappa Circle
1830,13.02178926,77.55323283,Old Railway Station Yeshwanthapura
1831,13.00087658,77.55042855,Canara Bank Rajajinagara 1st Block
1832,13.03957692,77.51822061,Jalahalli Cross
1833,13.03560504,77.52594403,Peenya Metro Station
1834,13.00381032,77.55000239,1st Block Rajajinagara Diacon Hospital
1835,13.29340439,77.54228714,Doddaballapura Old Bus Stand
1837,13.28742,77.54398048,Rangappa Circle
1838,12.99605818,77.55142166,2nd Block Rajajinagara 
1839,13.27990227,77.55174864,Railway Station Doddaballapura
1840,12.99440091,77.55274699,Basaveshwara College
1841,12.99057289,77.55260642,ESI Hospital Rajajinagara (Towards Old Police Station)
1842,12.99045923,77.5524676,ESI Hospital Rajajinagara (Towards Navarang)
1843,12.98992392,77.55545305,Old Police Station Rajajinagara
1844,13.27231478,77.55204223,Aparel Park
1846,12.98622758,77.55636379,Rama Mandira Rajajinagara 
1848,13.26176246,77.55264769,Bashettihalli
1849,13.25801187,77.5526708,Bank Circle Bashettyhalli
1850,12.98502683,77.48210122,Byadarahalli (Towards Gollarahatti)
1851,12.98245667,77.56197558,Sujatha Talkies
1852,13.1113861,77.60455583,Venkatala
1853,13.24603085,77.55243419,Jinke Bachahalli Gate
1854,13.12198268,77.6106065,Bagalur Cross
1855,12.98549815,77.47957102,College Cross Byadarahalli
1856,13.12135386,77.61815802,Dwaraka Nagara (Towards Bagaluru)
1857,12.96109008,77.55960912,Mysore Circle
1858,13.24590454,77.55252506,Jinke Bachahalli Gate
1859,13.12186527,77.62557987,Kattigenahalli Cross
1860,12.98565869,77.47956565,College Cross Byadarahalli
1861,13.1155333,77.63392769,Reva College
1862,13.22273583,77.54972305,Marasandra Circle
1863,12.95061071,77.55553515,Brundavana Nagara
1864,13.1153801,77.63422862,Reva College
1865,13.12602995,77.64510723,Srinivasapura Cross
1866,13.12790005,77.6464928,Sathanur Colony
1867,13.13453399,77.66809243,Bagalur (Towards Yadiyuru)
1868,13.1345471,77.66799766,Bagalur (Towards Hoovinayakanahalli)
1869,13.1333277,77.66669684,Bagalur Santhe
1870,13.13179589,77.6475168,Sathanur
1871,13.13190708,77.64743083,Sathanur
1872,13.12786197,77.64661776,Sathanur Colony
1873,13.20439657,77.55906987,Suradenapura Gate
1874,13.12576711,77.6450635,Srinivasapura Cross
1875,12.98212355,77.48111534,Manjunatha Nagara
1876,13.19518282,77.56281086,Sri Ramanahalli
1877,13.12175609,77.62576354,Kattigehalli Cross
1878,13.1212162,77.61804404,Dwaraka Nagara (Towards Yalahanka)
1879,13.12139734,77.61085849,Bagalur Cross
1880,13.13107889,77.61502881,Indian Air Force
1881,13.15970959,77.5665951,Honnenahalli
1882,13.1441821,77.61767753,Hunasamaranahalli
1883,12.98209606,77.48104124,Manjunatha Nagara
1884,12.98518445,77.48201717,Byadarahalli (Towards Sunkadakatte)
1885,13.13520502,77.56920107,Avalahalli (Towards Yalahanka NES Office)
1886,13.12997044,77.57146366,Nagenahalli Gate
1887,12.94440709,77.58013508,RV Teachers College
1888,13.12303806,77.57549666,CRPF (Towards Yalahanka)
1889,12.94312115,77.58542203,Ashoka Pillar
1891,13.11485706,77.57902536,Ananthapura Gate (Towards Yalahanka)
1892,12.96260524,77.47496911,Ullala Satelite Town
1893,12.93766304,77.58511153,Rani Saraladevi High School
1894,13.14327168,77.6428034,Hosahalli Kodagalahatti
1896,12.93680012,77.58127721,South End Circle
1897,13.14037788,77.64123449,Aralimara Hosahalli
1898,13.14038203,77.64128388,Aralimara Hosahalli
1899,13.1431192,77.62906961,Kodagalahatti
1900,13.14308786,77.62910179,Kodagalahatti
1901,12.95589732,77.48016004,Ullalu Village
1902,12.95567194,77.48009083,Ullalu
1903,13.14431364,77.61780433,Hunasamaranahalli
1907,12.95267666,77.48417837,Manganahalli Cross
1908,12.95270217,77.48403731,Manganahalli Cross
1909,12.93087407,77.5780767,6th Block Jayanagara
1910,12.95114837,77.48633057,Vidyaniketan Public School
1911,12.95119079,77.48611647,Vidyaniketan Public School
1912,12.93966253,77.57239033,Netkallappa Circle
1914,12.95090901,77.49176788,Press Layout
1915,12.9503434,77.49124344,Press Layout
1916,12.95130907,77.49415656,Muneshwara Layout
1917,12.95124028,77.49440948,Muneshwara Layout
1920,12.95211456,77.49853017,Bengaluru University Quarters (Towards Kengeri)
1921,13.15675813,77.62261223,Bettahalasuru Cross (Towards SMVIT College)
1922,12.95203864,77.49838,Bengaluru University Quarters (Towards Ullalu)
1923,12.90946957,77.56523265,Dayananda Sagar College
1925,12.95176374,77.49975027,Bengaluru University Quarters (Towards Mariyappanapalya)
1927,13.15924366,77.61141437,Bettahalasuru Hospital
1928,12.9029336,77.56170481,Kumaraswamy Layout
1931,12.89956207,77.55819633,ISRO Layout
1932,13.16258923,77.60143968,Narayanapura
1933,12.94153832,77.49345589,Kenchanapura Cross
1934,12.89520959,77.55509133,Pipeline ISRO Layout
1935,12.89493261,77.55283538,Vasanthapura
1936,12.89629549,77.54844662,Yadalamma Nagara
1937,12.94220249,77.49040651,Bhuvaneshwari Nagara 1st Stage
1938,13.17174906,77.59889973,Gurukula School Tharahunase 
1939,12.94258066,77.48724095,Bhuvaneshwari Nagara 2nd Stage
1941,12.94198828,77.48286507,Bridge Sonnenahalli 
1942,13.17857309,77.58864054,Tharahunase
1943,12.94200912,77.47969881,Sonnenahalli
1944,12.94458658,77.47501781,Chikka Basti
1945,12.94182352,77.4740872,Masjid Chikka Basti
1946,12.93947281,77.4729149,Dodda Basti
1947,13.17291279,77.56958865,Addiganahalli
1948,12.93445402,77.47241921,Chikkanahalli (Towards Dodda Basti)
1949,12.93448329,77.47248035,Chikkanahalli (Towards Kengeri Club)
1950,13.17221317,77.56444474,Rajanukunte
1951,12.9395272,77.47278292,Dodda Basti
1952,13.17320933,77.56431291,Rajanukunte
1953,12.94187296,77.4740544,Chikka Basti Masjid 
1954,13.17295433,77.5695334,Addiganahalli
1955,12.94464121,77.47504916,Chikka Basti
1956,13.16989949,77.58040881,Thimmasandra Circle
1958,13.17865177,77.58852605,Tharahunase
1959,12.8923176,77.53655881,Pratyangira Temple Turalli
1961,13.16264145,77.60139604,Narayanapura
1963,13.16105847,77.61097094,Bettahalasuru Circle
1965,13.13064521,77.61518286,IAF Indian Air Force 
1966,12.91253339,77.53705447,AGS Layout Arehalli
1970,12.9196099,77.54237866,Ittamadu
1972,12.94552322,77.46793549,Ramasandra
1976,12.92120968,77.54315334,SLV Bakery
1977,12.94214088,77.47984041,Sonnenahalli
1978,12.94209464,77.48293605,Bridge Sonnenahalli
1979,12.92399791,77.54363159,Ittamadu
1980,12.94264161,77.48714413,Bhuvaneshwari Nagara 2nd Stage
1981,12.9422923,77.49030846,Bhuvaneshwari Nagara 1st Stage
1982,12.92596373,77.54435531,Srinivasa Kalyana Mantapa
1983,12.94529819,77.49541136,Mariyappanapalya
1984,12.95000939,77.50067208,Bengaluru University Administrative Block
1985,12.95269972,77.50003446,Bengaluru University Quarters (Towards AIT College)
1986,12.93030789,77.53956987,Hoskerehalli
1987,12.95769513,77.50317792,Mallathahalli Cross
1988,12.95873612,77.50061511,Mallathahalli
1989,12.92579912,77.54423179,Srinivasa Kalyana Mantapa
1990,12.96001988,77.48913621,Balaji Layout
1991,12.96004673,77.48931594,Balaji Layout
1992,12.92390308,77.54367663,Ittamadu
1993,12.92118407,77.54324129,SLV Bakery
1994,12.91953727,77.54222203,Ittamadu
1995,12.91243824,77.53702523,AGS Layout Arehalli
1996,12.95888979,77.50058915,Mallathahalli
1997,12.95761362,77.50302704,Mallathahalli Cross
1998,12.96320595,77.50498594,Ambedkar Institute of Technology
1999,12.96696698,77.50517944,Deepa Complex
2000,12.97240292,77.50790787,Papareddypalya
2001,12.97227437,77.50803628,Papareddypalya
2002,12.89871134,77.54402614,Post Office Subramanyapura
2003,12.97511092,77.50958039,Aladamara Papareddypalya
2004,12.97501514,77.50938949,Aladamara Papareddypalya
2005,12.89637128,77.54842625,Yadalamma Nagara
2006,12.97931455,77.51072497,BDA Complex Nagarabhavi (Towards Kengeri)
2007,12.97950773,77.51058606,BDA Complex Nagarabhavi (Towards Kottigepalya)
2008,12.89623188,77.55262622,Vasanthapura Temple
2009,12.89516847,77.55511887,Pipeline ISRO Layout
2010,12.98055641,77.50687179,Annapoorneshwarinagara (Towards Papareddypalya)
2011,12.8994344,77.55822834,ISRO Layout
2012,12.98041988,77.50671759,Annapoorneshwarinagara (Towards Sunkadakatte)
2013,12.90324159,77.56167331,Kumaraswamy Layout
2014,12.97773579,77.50590494,St Josephine School Annapoorneshwarinagara
2015,12.97780677,77.50593808,St Josephine School Annapoorneshwarinagara
2016,12.97813873,77.50428176,3rd Main Road Annapoorneshwarinagara
2017,12.90529283,77.56274341,Kumaraswamy Layout Police Station
2018,12.9781881,77.50425403,3rd Main Road Annapoorneshwarinagara
2019,12.97871389,77.50167747,Sri Gandhada Kavalu
2020,12.90951564,77.56531911,Dayananda Sagar College
2021,12.97872339,77.50172874,Sri GandhadaKavalu
2022,12.9719581,77.49701682,Annapoorneshwarinagara Water Tank
2023,12.9720322,77.4969665,Annapoorneshwarinagara Water Tank
2024,12.96779611,77.50230238,ITI Layout
2025,12.96777613,77.50246983,ITI Layout
2026,13.00814666,77.69628689,KR Puram
2027,13.00531439,77.70230742,Venugopala Temple Devasandra
2028,13.00442103,77.70583134,Chikka Devasandra  KR Puram
2029,13.00430618,77.71001823,Ayyappa Nagara  Sadaramangala
2030,13.00450683,77.71239878,Ayyappa Nagara Muneshwara Temple Sadaramangala
2032,12.95639552,77.70900393,Munnekolalu Cross
2034,12.99876186,77.74238301,Goodshed Road
2036,12.95832429,77.71559037,Kundalahalli
2038,12.99687608,77.75854485,Kadugodi Railway Station
2039,12.96759276,77.71396807,CMRIT College
2040,12.97015766,77.71246804,Kundalahalli Colony
2041,12.97819261,77.71130868,Graphite India (Towards ITPL)
2042,12.99453169,77.75785163,Kadugodi Bridge
2043,12.97734538,77.71887146,I Gate
2044,12.99417258,77.75752481,Kadugodi Bridge
2045,12.97698824,77.72226917,KTPO
2046,13.00093071,77.75757186,Sathya Sai Baba Mandir
2047,13.00410489,77.75691881,Bellathur
2048,12.97658946,77.72692723,White Field TTMC (Vydehi Hospital)
2049,13.01344395,77.76104447,Seegehalli Gate
2050,12.9824554,77.72780105,Sathya Sai Hospital
2051,13.02169602,77.76197046,Chaithanya Samarpan Apartment
2052,13.0321906,77.75854482,Kannamangala Gate
2053,12.98313986,77.72845615,Sathya Sai Hospital
2054,13.03801437,77.75969928,Safal Market
2055,12.9764054,77.72685958,White Field TTMC (Vydehi Hospital)
2057,12.98449626,77.55420361,Bashyam Circle Rajajinagara
2058,12.9871458,77.55081723,Dhobi Ghat Rajajinagara (Towards Chord Road)
2059,12.97677612,77.72224499,KTPO
2060,13.04377435,77.7603254,Gorivegere Gate
2061,12.9771171,77.71878515,I Gate
2062,12.99095016,77.55080135,ESI Hospital Rajajinagara (Towards Yashawanthapura)
2063,12.97719646,77.71013815,Graphite India (Towards Kundalahalli Colony)
2064,12.99585888,77.55072313,Manjunatha Nagara
2065,12.97053893,77.71244322,Kundalahalli Colony
2066,12.99532214,77.55067306,Manjunatha Nagara
2067,12.96765542,77.7143732,CMRIT College
2068,12.99748625,77.5461071,Modi Hospital
2069,13.04393269,77.76061092,Gorivegere Gate
2070,13.03804851,77.7599315,Safal Market
2071,12.9568443,77.71503285,Kundalahalli Gate
2072,13.03465398,77.75895042,Khaji Sonnenahalli Gate
2073,13.03465601,77.7590883,Khaji Sonnenahalli Gate
2074,12.95629245,77.70887399,Munnekolalu Cross
2075,12.9905845,77.55085582,ESI Hospital Rajajinagara (Towards Vijayanagara)
2076,12.98762608,77.55102702,Dhobi Ghat Rajajinagara (Towards Ramamandira)
2077,13.03222214,77.75864181,Kannamangala Gate
2078,13.02788267,77.76031444,Bevina Mara Kannamangala
2079,13.02794748,77.76044967,Bevina Mara Kannamangala
2080,13.02441694,77.76162487,Sai Lakshmi Industries
2081,13.02447953,77.76174941,Sai Lakshmi Industries
2082,13.02183505,77.76203544,Chaithanya Samarpan Apartment
2083,13.01772834,77.76208131,Shell Petrol Bunk
2084,13.01761897,77.76219562,Shell Petrol Bunk
2085,13.01312693,77.76107313,Seegehalli Gate
2086,12.97463907,77.56603528,Angalaparameshwari Temple
2090,13.00407373,77.75703659,Bellathur
2091,13.00114126,77.75768083,Sathya Sai Baba Mandir
2092,12.99562685,77.75853309,Kadugodi Bus Station
2093,12.99774694,77.75781477,Central Bank Kadugodi
2094,12.99960446,77.75268462,Bellathur Colony
2095,13.00137215,77.74760597,Kumbena Agrahara
2106,13.00425963,77.70996585,Ayyappa Nagara  Sadaramangala
2107,13.00423471,77.70604706,Chikka Devasandra  KR Puram
2108,13.00523293,77.70213821,Venugopala Temple Devasandra
2110,12.95680646,77.78609221,Harohalli (Towards Thimmandahalli)
2113,12.88672062,77.56623783,Konanakunte Cross
2114,12.88581215,77.55641454,Doddakallasandra
2115,12.88405118,77.55119496,Gubbalala Gate
2116,12.88053768,77.54601158,Raghuvanahalli Cross
2117,12.87564159,77.54368411,Bayyanapalya
2118,12.8693497,77.53685318,Thalagattapura
2119,12.86943339,77.53675864,Thalagattapura
2120,12.87554876,77.54363582,Bayyanapalya
2123,12.91857787,77.66991416,Bellanduru Gate SJP Road 
2124,12.91395419,77.67766761,Kaikondrahalli
2125,12.91082098,77.68447201,Junnasandra Gate Wipro Regional Office
2126,12.90728586,77.69550686,Doddakannalli
2127,12.90351545,77.70397059,Carmelram Gate
2128,12.89901684,77.71313221,Ambedkar Nagara
2129,12.89659742,77.72047585,Kodathi Gate
2130,12.892427,77.72853149,Sulikunte
2131,12.89228812,77.72843449,Sulikunte
2132,12.89652318,77.72025048,Kodathi Gate
2133,12.88826989,77.71630416,Kodathi Village
2134,12.87058734,77.72110371,Chokkasandra
2135,12.86247008,77.72005026,Harohalli (Towards Chintala Madivala)
2136,12.87066459,77.72120034,Chokkasandra
2137,12.99049507,77.58871406,Avinash Petrol Bunk
2138,12.88826779,77.7162569,Kodathi Village
2139,12.99904739,77.57744519,Vaiyali Kaval
2140,13.00086792,77.57826214,Vaiyalikaval Police Station
2141,13.00482663,77.57856853,Bashyam Circle (Towards Vayyali Kaval)
2142,13.0045998,77.57842294,Bashyam Circle (Towards Sasdashiva Nagara)
2143,12.90437779,77.72445225,Mulluru
2144,12.91220864,77.73340095,Kachamaranahalli
2145,13.00631975,77.57920263,Bashyam Circle Sadashivanagara 
2146,13.00496456,77.58109315,Bashyam Circle (Towards Malleshwaram 18th Cross)
2147,13.00207964,77.5784971,Vaiyalikaval Police Station
2149,12.92244389,77.7177225,Gunjurpalya
2150,12.99915382,77.57754381,Vaiyali Kaval
2151,12.99887567,77.57494832,Dattatreya Temple Malleshwaram
2152,12.99892824,77.57460858,Dattatreya Temple Malleshwaram
2153,12.92927314,77.71294618,Panathuru Dinne
2154,12.99790235,77.5713427,Malleshwaram Circle
2155,12.93560815,77.70573693,Panathuru Cirlce
2156,12.92931154,77.71295724,Panathuru Dinne
2157,12.92212787,77.71782423,Gunjurpalya
2158,13.00333212,77.56531364,13th Cross Malleshwaram (8th Mian)
2159,12.91223117,77.73349478,Kachamaranahalli
2160,13.01026189,77.56232248,18th Cross Malleshwaram (Towards Yashawanthapura)
2162,13.00322551,77.56526392,13th Cross Malleshwaram (8th Mian)
2163,12.88309047,77.75251127,Dommasandra Circle (Towards Dommasandra)
2164,12.90062431,77.7478211,Green Wood High School
2165,12.91077318,77.68438103,Junnasandra Gate Wipro Regional Office
2167,12.9057868,77.74650701,Heggondanahalli
2168,12.90576379,77.74654205,Heggondanahalli
2170,12.91395926,77.67740718,Kaikondrahalli
2171,12.91863611,77.66931093,Bellanduru Gate SJP Road 
2172,12.92134793,77.73634877,Gunjuru (Towards Varthuru Kodi)
2175,12.94251675,77.74700257,Varthuru Govt College
2176,13.0177963,77.55805941,Police Station Yashawanthapura
2177,13.00978734,77.56911118,18th Cross Malleshwaram (Towards KBS)
2178,13.01778279,77.55813289,Police Station Yashawanthapura
2181,12.98370081,77.75344501,Hope Farm (Towards Chikka Thirupathi)
2182,12.98287253,77.76099599,MVJ College Channasandra
2185,12.98345999,77.76792204,Channasandra (Towards Chikka Thirupathi)
2188,12.99136273,77.5639166,Bandi Reddy Circle
2190,12.98595124,77.78138976,Thirumalashettyhalli  Cross
2192,12.98019867,77.78996953,Samethanahalli
2193,12.97998261,77.79158187,Samethanahalli Old Stop
2194,12.97888154,77.80249115,Bhodhana Hosahalli
2195,12.97683627,77.81643734,Dodda Dunnasandra
2196,12.99688022,77.56082339,Harishchandra Ghat
2197,12.99847143,77.55582443,Mariyappanapalya
2198,12.99870117,77.55647213,Mariyappanapalya
2199,12.85115345,77.65760508,Velankani Drive
2200,12.99728738,77.56050819,Harishchandra Ghat
2201,12.85104568,77.65738091,Velankani Drive
2202,12.99621597,77.56422681,Devaiah Park
2203,12.9964111,77.56424332,Devaiah Park
2206,12.84516368,77.66024064,BHEL (Towards Electronic City)
2207,12.84504355,77.66002216,BHEL (Towards Velankani)
2209,12.95280516,77.83037206,Medi Mallasandra
2210,12.94769446,77.8337652,Mata Mallasandra
2211,12.94225296,77.83685986,Arehalli Cross
2212,12.9363551,77.84120461,Kalkunte Agrahara  School
2214,12.92748718,77.85017888,Shiva Ittige Factory
2215,12.92115913,77.85566782,Yettu Kodi
2216,12.91372736,77.86183763,Ganagaluru Cross
2217,12.8415435,77.64758109,Neeladri Water Park
2218,12.90460385,77.867907,Anche Muskuru
2219,12.89512197,77.86698579,Chikka Thirupathi
2220,13.00546823,77.5564701,East West Public School
2221,13.00555745,77.55638024,East West Public School
2222,13.0046617,77.55992687,Canara Bank Subramanyanagara
2223,12.89536214,77.86706007,Chikka Thirupathi
2224,12.89332245,77.85016264,Ganagaluru Circle
2225,13.00414625,77.56136018,Subramanyanagara
2227,12.9167001,77.62928387,SI Apartment HSR Layout
2228,12.99175731,77.45965557,Forest Gate (Towards Tavarakere)
2229,13.06069582,77.46128301,Madanayakanahalli
2230,12.99079029,77.45428043,Machohalli Gate
2231,13.00138804,77.56078719,Kodandarama Temple
2232,13.00141078,77.56073644,Kodandarama Temple
2235,12.89583055,77.82878896,Thiruvaranga Gate
2236,12.91768511,77.62379304,Central Silk Board (Towards Hebbala)
2237,12.99049758,77.46865707,Kachohalli Gate
2238,12.99148289,77.46521579,Chikka Gollarahatti
2239,12.99991007,77.56039828,SBM Gayathri Nagara
2240,12.99992529,77.5603509,SBM Gayathri Nagara
2241,12.91747831,77.62404046,Central Silk Board (Towards BTM Layout)
2244,12.91520665,77.82409605,Tattanuru
2245,12.91517653,77.82413435,Tattanuru
2246,12.90176145,77.82652433,Thiruvaranga
2247,12.8194936,77.63743933,Kempapura 
2248,12.90176087,77.82659683,Thiruvaranga
2249,12.81944577,77.63730449,Kempapura 
2250,12.89587687,77.82877824,Thiruvaranga Gate
2251,12.89457214,77.84649584,Baguru Colony
2252,12.89469346,77.84648015,Baguru Colony
2253,12.89342779,77.8501188,Ganagaluru Circle
2254,12.99969604,77.58431177,RM Guttahalli
2255,12.89537647,77.86692495,Chikka Thirupathi
2256,12.90451534,77.86779755,Anche Muskuru
2257,12.91381575,77.86169073,Ganagaluru Cross
2258,12.92117919,77.8555607,Yettu Kodi
2259,12.92744831,77.85000411,Shiva Ittige Factory
2260,12.99659364,77.58792436,Forum City Apartment
2261,12.99659466,77.58808924,Forum City Apartment
2263,12.99311364,77.58882578,Mount Carmel College
2264,12.93290918,77.8408949,Kalkunte Agahara
2265,12.94224784,77.8364487,Arehalli Cross
2266,12.94766953,77.83364321,Mata Mallasandra
2267,12.95277703,77.83028066,Medi Mallasandra
2268,12.95625718,77.82411759,Obalapura Gate
2271,12.97673036,77.8165863,Dodda Dunnasandra
2272,12.97883471,77.80239775,Bhodhana Hosahalli
2274,12.9798968,77.79148463,Samethanahalli Old Stop
2275,12.98034683,77.78971803,Samethanahalli
2276,12.98612599,77.78095065,Thirumalashettyhalli  Cross
2277,12.84345413,77.64409258,Thogur Cross
2278,12.98332232,77.76815321,Channasandra (Towards Hope Farm)
2279,12.98285859,77.76129262,MVJ College Channasandra
2280,12.98326518,77.75232229,Hope Farm (Towards Varthuru)
2282,12.94242675,77.74701687,Varthuru Govt College
2283,12.92859375,77.73947835,Vinayaka Nagara
2286,12.9008126,77.74785636,Green Wood High School
2287,12.88330839,77.75217418,Dommasandra Circle (Towards Muttanallur Cross)
2290,13.00898839,77.6231977,Lingarajapura Bridge
2291,13.01244245,77.62571268,Lingarajapura
2292,13.01445473,77.62704726,Jyothi School
2293,13.0212607,77.62861877,Kacharakanahalli
2294,13.0260073,77.63241102,Depot-10 Hennuru
2295,13.02774053,77.63219139,Hennur Junction (Towards Nagavara)
2296,13.027638,77.6323323,Hennur Junction (Towards Kacharakanahalli)
2297,13.02102081,77.62867711,Kacharakanahalli
2298,13.01445327,77.62720378,Jyothi School
2299,13.01460924,77.63577474,Kammanahalli Empire Hotel
2300,13.01788751,77.63642974,Kammanahalli
2301,13.02118269,77.63691698,Jalavayu Vihara
2302,13.0260101,77.63693553,Kalyananagara Junction
2303,13.02601506,77.63703351,Kalyananagara Junction
2304,13.02096324,77.6369904,Jalavayu Vihara
2305,13.01471442,77.63588351,Kammanahalli Empire Hotel
2306,13.01406873,77.63937516,Kullappa Circle
2308,13.01386921,77.64232797,Patel Public School Kalyananagara 
2309,13.01510835,77.64266851,80ft Road Banasawadi
2310,13.02095416,77.64316968,80ft Road HRBR Layout
2311,13.02385876,77.64321166,HRBR Layout Cross
2313,13.0203503,77.64328044,80ft Road HRBR Layout
2314,13.01537585,77.6428969,80ft Road Banasawadi
2315,13.01385586,77.6424761,Patel Public School Kalyananagara 
2316,13.00963511,77.64325632,Maruthi School
2317,13.0095394,77.64316128,Maruthi School
2318,13.01157812,77.64744922,Srinidhi Hotel
2321,13.01093548,77.65918169,Chowdeshwari Temple B Channasandra
2322,13.0102029,77.65759655,B Channasandra (Towards Ramamurthy Nagara)
2323,13.00998179,77.65766932,B Channasandra (Towards Kasturinagara)
2325,13.00240124,77.66125225,Kasthuri Nagara
2326,13.00274219,77.66102252,Kasthuri Nagara
2327,13.01389546,77.662053,B Channasandra Bridge (Towards Babusabpalya)
2330,13.00956464,77.63531702,Ramaswamypalya
2331,13.01242968,77.62580605,Lingarajapura
2332,13.00608723,77.62093865,Charls School Toll Gate 
2333,13.00337533,77.61931514,Richards Park
2334,12.90910175,77.64930355,Parangipalya
2336,12.89880825,77.65121223,Somasundarpalya
2337,12.90146259,77.66040769,Haraluru (Towards Kudlu)
2339,12.88945198,77.65525144,Kudlu
2340,12.89020884,77.64661612,BTR Garden
2341,12.88937823,77.64035358,Kudlu Gate
2342,12.89026953,77.64660576,BTR Garden
2343,12.88962317,77.65519031,Kudlu
2344,12.87089744,77.65409772,Hosa Road (Towards Hosa Road Junction )
2345,12.87029071,77.65830383,New MICO Gate
2346,12.86238363,77.67480577,Dodda Nagamangala
2349,12.84256884,77.68718242,Singena Agrahara Cross Fruits Market 
2350,12.84890621,77.69234911,Depot-38 Gate Chikkanagamangala
2351,12.86830709,77.70360834,Gattahalli
2352,12.87847965,77.69871903,Doddamma Temple (Towards Dodda Kannalli )
2356,13.02400884,77.59880884,Dinnur Main Road
2357,13.02391946,77.59884403,Dinnur MainRoad
2358,13.02466383,77.60329196,Ashwathkatte Sultanpalya
2359,13.02886119,77.60160668,Manorayanapalya
2363,13.03345792,77.59929038,Chamundi Nagara (Towards RT Nagara)
2364,13.03329336,77.59921216,Chamundi Nagara (Towards Hebbala)
2365,13.03520064,77.59971793,Jolanayakanahalli
2366,13.03676613,77.59746788,Cholanayakanahalli (Towards Nagenahalli)
2367,13.03670968,77.59742291,Cholanayakanahalli (Towards Hebbala)
2368,13.02888648,77.60169315,Manorayanapalya
2369,13.02847436,77.60448668,Ashwathkatte Manorayanapalya
2370,13.02662127,77.60394552,Sultanpalya
2371,12.88838079,77.69600803,Primus Public School
2373,12.88392477,77.6969808,Chikkanayakanahalli Dinne
2374,13.03295794,77.6189496,Govindapura (Towards Govindapura Village)
2375,13.03303571,77.61892279,Govindapura (Towards Tannery Road)
2377,12.8683211,77.70359296,Gattahalli
2379,12.86230568,77.67491209,Dodda Nagamangala
2380,12.87040865,77.65830493,New MICO Gate
2382,12.87570214,77.67112269,Rayasandra Circle
2385,12.87938683,77.67210512,Rayasandra
2386,12.88593688,77.67238968,KSRP Training Centre
2387,12.88853102,77.67299419,Choodasandra Circle
2388,13.00454089,77.59968708,Marappa Garden
2390,12.88855363,77.67294247,Choodasandra Circle
2391,13.0216933,77.59252857,Post Office RT Nagara
2392,12.88587541,77.67244045,KSRP Training Centre
2393,12.87568628,77.67126383,Rayasandra Circle
2394,13.01746592,77.5917727,Rehamathnagara
2395,12.87367538,77.66638341,Bengaluru Central Jail
2396,12.88099576,77.65783326,Parappana Agrahara
